ID,Name of Business,Short Description,Address,City,State,Postcode,Phone Number,Which type of business is this?,Business Website or Other URL,Borough,Latitude,Longitude,Community Board,Council District,Census Tract,BIN,BBL,NTA
1,"C to C Tile, inc",Tile Designs and Solutions,48 west 21st st,New York,NY,10024,(347) 820-2113,Retail,http://www.ctoctile.com,MANHATTAN,40.740915,-73.992083,5,3,54,1015510,1008220067,Hudson Yards-Chelsea-Flatiron-Union Square                                 
2,Con Artist Collective,Art Gallery and Collective,119 Ludlow st.,New York,NY,10002,(646) 504-2323,Retail,http://conartistnyc.com,MANHATTAN,40.719585,-73.988618,3,1,18,1005315,1004100021,Chinatown                                                                  
3,Coffee Project New York,Coffee Shop,239 E 5th Street,New York,NY,10003,(212) 228-7888,Food and Beverage,http://www.coffeeprojectny.com,MANHATTAN,40.727345,-73.990305,3,2,38,1006629,1004610035,East Village                                                               
4,Golden Bridge Yoga,"Kundalini Yoga Studio and Holistic Store with Clothes, Books and More",253 Centre Street,New York,NY,10013,(212) 343-8191,Service,http://www.goldenbridgeyoga.com,MANHATTAN,40.720478,-73.997962,2,1,45,1007004,1004720015,SoHo-TriBeCa-Civic Center-Little Italy                                     
5,Three Guys from Brooklyn,Grocery store featuring Fresh Fruit and Vegetables,6502 Fort Hamilton Pkwy,Brooklyn,NY,11219,(718) 748-8340,Retail,http://www.3guysfrombrooklyn.com,BROOKLYN ,40.630553,-74.00936,10,38,120,3328767,3057500019,Sunset Park East                                                           
6,NYC iRepair,iPhone Repair Shop,147 West 35th St Suite 1206,New York,NY,10001,(212) 777-6955,Service,http://www.nycirepair.com,MANHATTAN,40.751123,-73.988844,5,3,109,1015224,1008110010,Midtown-Midtown South                                                      
7,Macaron Parlour - Columbus,Bakery,560 Columbus Ave.,New York,NY,10024,(212) 799-9169,Food and Beverage,http://www.macaronparlour.com,MANHATTAN,40.787312,-73.971587,7,6,173,1032246,1012187501,Upper West Side                                                            
8,Meow Parlour,Cat Cafe,46 Hester Street,New York,NY,10002,(212) 387-9169,Other,http://www.meowparlour.com,MANHATTAN,40.71568,-73.990203,3,1,16,1003810,1002970015,Chinatown                                                                  
9,Macaron Parlour - Hester,Bakery,44 Hester Street,New York,NY,10002,(212) 387-9169,Food and Beverage,http://www.macaronparlour.com,MANHATTAN,40.715655,-73.990123,3,1,16,1003811,1002970016,Chinatown                                                                  
10,Mystery Room NYC,Escape Room,190 Mercer Street,New York,NY,10012,(302) 401-1373,Service,http://www.mysteryroomnyc.com,MANHATTAN,40.7263,-73.997175,2,1,5501,1008239,1005230047,West Village                                                               
11,Pizza boy ii,Pizza place,58-19 woodside Avenue,Woodside,NY,11377,(718) 426-5023,Food and Beverage,https://www.pizzaboyny.com/,QUEENS   ,40.745604,-73.90628,2,26,259,4028286,4012290001,Woodside                                                                   
12,Charmar Superette,Corner Store,85 Stuyvesant Place,Staten Island,NY,10301,(718) 981-4638,Food and Beverage,,STATEN IS,40.643865,-74.077592,1,49,3,5000068,5000070063,West New Brighton-New Brighton-St. George                                  
13,Caribbean sunshine restaurant and cuisine,Jamaican restaurant,1111 East Tremont Avenue,Bronx,NY,10460,(929) 777-9184,Food and Beverage,http://caribbean-sunshine-resturant.business.site/,BRONX    ,40.839968,-73.876924,6,15,220,2098842,2040040011,East Tremont                                                               
14,Smile-Savers Orthodontistry,Orthodontist,2100 Bartow Avenue,Bronx,NY,10475,(718) 708-6323,Service,http://WWW.SMILESAVERSORTHO.COM,BRONX    ,40.869429,-73.825737,10,12,46201,2103850,2051410810,Co-op City                                                                 
15,Dental Smiles Unlimited,Dentist,2100 Bartow Avenue,Bronx,NY,10475,,Service,http://WWW.DENTALSMILESUNLIMITED.COM,BRONX    ,40.869429,-73.825737,10,12,46201,2103850,2051410810,Co-op City                                                                 
16,Smile Savers Pediatric Dentistry,Kids' dental specialist in the Bronx,2100 Bartow Avenue,Bronx,NY,10475,(718) 708-6755,Service,http://WWW.SmileSaversKids.com,BRONX    ,40.869429,-73.825737,10,12,46201,2103850,2051410810,Co-op City                                                                 
17,Martinez Consulting Services,Professional Services,4089 Amundson Avenue,Bronx,NY,10466,(347) 947-0084,Service,http://www.martinezconsultingservices.com,BRONX    ,40.893525,-73.837237,12,12,426,2067920,2049880044,Woodlawn-Wakefield                                                         
18,20/20 Deli,Deli/Grocery Store,1120 Southern Boulevard,Bronx,NY,10459,,Food and Beverage,,BRONX    ,40.827058,-73.891896,3,17,125,2006049,2027450001,Morrisania-Melrose                                                         
19,Dr.Sofa,"""Specialize in furniture services such as reupholsterly, repair and assembly""",220 East 134th Street,Bronx,NY,10451,(718) 292-6300,Service,http://www.drsofa.com,BRONX    ,40.809255,-73.93065,1,8,51,2000783,2023190098,Mott Haven-Port Morris                                                     
20,Plowshares Coffee,Coffee Shop,2730 Broadway,New York,NY,10025,(212) 222-0280,Food and Beverage,https://www.plowsharescoffee.com/,MANHATTAN,40.800195,-73.96806,7,7,191,1056600,1018760046,Upper West Side                                                            
21,Havana Cafe,"""Restaurant with great Latin food""",1247  Castle Hill Avenue,Bronx,NY,10467,,Food and Beverage,http://www.bronxhavanacafe.com/,BRONX    ,40.833081,-73.851323,9,18,92,2026570,2038130042,Westchester-Unionport                                                      
22,Light Touch Laser Spa,"""Light Touch is one the best laser hair removal spas in NYC""",1133 Broadway,New York,NY,10010,(646) 926-7202,Service,https://www.lighttouchnyc.com,MANHATTAN,40.743523,-73.989073,5,3,58,1015625,1008270049,Hudson Yards-Chelsea-Flatiron-Union Square                                 
23,E. Rossi Company,"""Little Italy gift shop in business for 107 years""",193 Grand Street,New York,NY,10013,212-226-9254,Retail,http://www.erossico.com/#,MANHATTAN,40.719243,-73.997085,2,1,41,1077451,1002370012,SoHo-TriBeCa-Civic Center-Little Italy                                     
24,Nieves Tia Mimi,Ice cream shop,89-14 Roosevelt Avenue,Jackson Heights,NY,11372,(917) 257-9930,Food and Beverage,http://nievestiamimi.com,QUEENS   ,40.748319,-73.877339,4,21,271,4037319,4015100008,Elmhurst                                                                   
25,Chang Noi Thai,Thai restaurant,100 Stuyvesant Place,Staten Island,NY,10301,(718) 442-8424,Food and Beverage,https://www.facebook.com/changnoithaisi/,STATEN IS,40.643596,-74.077412,1,49,3,5000083,5000080046,West New Brighton-New Brighton-St. George                                  
26,Studio 360 Architecture/Interior Design,"""Boutique architecture firm specializing in renovation and interior design""",2500 Johnson Avenue,Riverdale,NY,10463,(877) 891-7365,Service,http://www.studio360s.com,BRONX    ,40.877162,-73.917861,8,11,29302,2083245,2057160500,Spuyten Duyvil-Kingsbridge                                                 
27,Cocoa Bar,Cafe and Wine Bar,21 Clinton Street,New York,NY,10002,(212) 677-7417,Food and Beverage,http://www.cocoabarnyc.com,MANHATTAN,40.720683,-73.984253,3,2,3001,1088336,1003500026,Chinatown                                                                  
28,ISE Office Plus,Office supply & furniture distributor,4422 Bronx Blvd,Bronx,NY,10470,(718) 324-0006,Other,http://www.iseop.com,BRONX    ,40.900348,-73.857369,12,11,414,2097450,2050660008,Woodlawn-Wakefield                                                         
29,Tiny Treasures Nanny Agency,"""Wonderful mom owned Botique Nanny agency.  Reliable & professional""",300 Park Avenue,New York,NY,10022,(646) 290-5566,Service,https://www.tinytreasuresnyc.com,MANHATTAN,40.756802,-73.974271,5,4,102,1081146,1012850036,Midtown-Midtown South                                                      
30,Terry's Cleaners,"""EST.1969 Plant on Premises Quality Dry Cleaning expert""",257 East Burnside Avenue,Bronx,NY,10417,(718) 731-6262,Service,https://www.facebook.com/pages/Terrys-Dry-Cleaners/116349948426111,BRONX    ,40.851547,-73.902426,5,15,381,2013679,2031560092,Mount Hope                                                                 
31,Sofia and Grace Cookie Company,Cookie Shop,163 Ralph Avenue,Brooklyn,NY,11233,(718) 450-8034,Food and Beverage,http://Sgcookieco.com,BROOKLYN ,40.684372,-73.922991,3,41,377,3040058,3014930075,Stuyvesant Heights                                                         
32,Lanka Grocery,"""Supermarket with Sri Lankan, Albanian, and Mexican food""",344 Victory Blvd,Staten Island,NY,10301,(718) 390-0052,Food and Beverage,http://lankagrocery.com/,STATEN IS,40.633626,-74.086004,1,49,33,5113141,5005790033,Grymes Hill-Clifton-Fox Hills                                              
33,BaZnGa CaFe,"""Snack Café""",426 Amsterdam Avenue,New York,NY,10024,(212) 362-7386,Food and Beverage,https://www.facebook.com/BaZnGaCaFeNYC/,MANHATTAN,40.784127,-73.977623,7,6,167,1032666,1012280032,Upper West Side                                                            
34,JP Hogan Sawing & Coring Co.,Contractor,680 Gulf Avenue,Staten Island,NY,10314,(718) 761-7014,Service,http://www.888jphogan.com,STATEN IS,40.613048,-74.180614,2,50,29102,5123406,5017600110,New Springville-Bloomfield-Travis                                          
35,Mabi Deli,Bodega,141 Evergreen Avenue,Brooklyn,NY,11206,(718) 628-6428,Retail,,BROOKLYN ,40.698801,-73.930552,4,34,425,3072232,3031720001,Bushwick South                                                             
36,National  Vision Center,Optical retail store,820 Flatbush Avenue,Brooklyn,NY,11226,(718) 693-5994,Retail,,BROOKLYN ,40.652672,-73.959283,14,40,50801,3116567,3050820012,Flatbush                                                                   
37,Nomad Cycle,Bicycle repair and sales,36-58 37th Street,Long Island City,NY,11101,(718) 786-5600,Retail,http://www.nomadcycle.com,QUEENS   ,40.753268,-73.925839,1,26,55,4534374,4006360053,Queensbridge-Ravenswood-Long Island City                                   
38,West Side Judaica,"""Jewish-focused bookstore with religious gifts & items, such as menorahs & mezuzahs""",2412 Broadway,New York,NY,10024,(212) 362-7846,Retail,,MANHATTAN,40.789967,-73.975187,7,6,175,1033301,1012360044,Upper West Side                                                            
39,Palace Chicken & Grill,"""Fast food, fried chicken and burgers""",4445 21st Street,Long Island City,NY,11101,(718) 433-1661,Food and Beverage,http://www.palacechickenandgrill.com/menu.html,QUEENS   ,40.748218,-73.947308,2,26,19,4005183,4004380021,Hunters Point-Sunnyside-West Maspeth                                       
40,LIC Kids Gymnastics,"""Gymnastics facility""",502 50th Avenue,Long Island City,NY,11101,(718) 392-5437,Service,http://www.lickids.com,QUEENS   ,40.743103,-73.956092,2,26,7,4000167,4000337501,Hunters Point-Sunnyside-West Maspeth                                       
41,Juquila Kitchen and Bar,Mexican Restaurant,39-05 29th Street,Long Island City,NY,11101,(718) 707-3700,Food and Beverage,https://www.juquilarestaurants.com/,QUEENS   ,40.753298,-73.934664,1,26,31,4538549,4003990017,Queensbridge-Ravenswood-Long Island City                                   
42,M&G Shoe Repair,Shoe Repair,423 9th Avenue,New York,NY,10001,(212) 967-8744,Service,http://www.mgcobblerandcleaners.com/,MANHATTAN,40.753108,-73.996521,4,3,103,1012849,1007310048,Hudson Yards-Chelsea-Flatiron-Union Square                                 
43,Larb Ubol,Thai Restaurant,480 9th Avenue,New York,NY,10018,(212) 564-1822,Food and Beverage,http://www.larbubol.com,MANHATTAN,40.755163,-73.995001,4,3,111,1013609,1007600074,Hudson Yards-Chelsea-Flatiron-Union Square                                 
44,Katz Pharmacy,"""In the area for many years. They are caring, and involved in the retail district""",76 Graham Avenue,Brooklyn,NY,11206,(718) 388-4588,Retail,http://www.katzpharmacy.com/,BROOKLYN ,40.703589,-73.942575,1,34,491,3071513,3031060007,East Williamsburg                                                          
45,Flash Exterminating,"""Rat and roach exterminator""",310 Montgomery Street,Brooklyn,NY,11206,(888) 752-0584,Service,http://www.flashexterminating.com,BROOKLYN ,40.665587,-73.954528,9,35,323,3034416,3013040118,Crown Heights South                                                        
46,Baker Street Pub,Bar & Restaurant,1152 1st Avenue,New York,NY,10065,(212) 688-9663,Food and Beverage,http://www.bakerstreetnyc.com,MANHATTAN,40.762254,-73.960021,8,5,10602,1045377,1014587504,Lenox Hill-Roosevelt Island                                                
47,Peque Vinos & Tapas,Tapas wine bar and restaurant,231 West 145th Street,New York,NY,10039,(917) 751-0055,Food and Beverage,http://Peque Vinos & Tapas facebook page,MANHATTAN,40.822103,-73.940153,10,9,232,1060477,1020310014,Central Harlem North-Polo Grounds                                          
48,Broadway Café,Bodega/Grocery,4109 Broadway,Astoria,NY,11103,(718) 406-9477,Food and Beverage,,QUEENS   ,40.758439,-73.917838,1,22,155,4011160,4006790005,Astoria                                                                    
49,Florama Carpet Discount Center,"""Local owners who work hard to make their customers happy""",100 Graham Avenue,Brooklyn,NY,11206,(718) 384-7242,Retail,http://floramacarpetdiscount.com/,BROOKLYN ,40.704643,-73.942751,1,34,493,3071409,3030890002,Bushwick South                                                             
50,Caps Unlimited,"""Fantastic cap shop...very popular in the area""",88 Graham Avenue,Brooklyn,NY,11206,(718) 388-4143,Retail,http://www.ecapsunlimited.com/,BROOKLYN ,40.704121,-73.942665,1,34,491,3071452,3030970005,East Williamsburg                                                          
51,Super Furniture,"""In the nabe many years. Very helpful/fantastic prices for solid furniture needs""",130 Graham Avenue,Brooklyn,NY,11206,,Retail,http://eximil.com/,BROOKLYN ,40.705782,-73.942937,1,34,493,3071352,3030800008,Bushwick South                                                             
52,Party Glitters,Very involved in the community plus a great store for party items,3 Debevoise Street,Brooklyn,NY,11206,,Retail,https://www.partyglittersonline.com/,BROOKLYN ,40.701555,-73.94301,1,34,491,3071606,3031190037,East Williamsburg                                                          
53,Laughing River Dojo,"Jujitsu, Tai Chi, Mediation, RG8T, ASP",94-17 41st Avenue,Elmhurst,NY,11373,(718) 397-9111,Other,,QUEENS   ,40.746849,-73.871513,4,21,465,4039619,4015870034,Elmhurst                                                                   
54,Ajoy Management Enterprise,Accounting and Tax Services,42 West 129th Street,New York,NY,10027,(646) 535-2459,Service,http://www.ajoymgmt.com/,MANHATTAN,40.809673,-73.942119,10,9,208,1053708,1017260057,Central Harlem North-Polo Grounds                                          
55,The Source Unltd Print & Copy Shop,Printing and Copies,331 East 9th Street,New York,NY,10003,(212) 473-7833,Service,http://www.sourceunltd.com,MANHATTAN,40.728827,-73.986373,3,2,40,1006422,1004510046,East Village                                                               
56,Gramercy Orthodontics,Orthodontist,200 East 15th Street,New York,NY,10003,(212) 777-9177,Service,http://gramercyorthodontics.com,MANHATTAN,40.733921,-73.986566,6,2,48,1019522,1008960048,Gramercy                                                                   
57,"Bottom Line Construction & Development, LLC",General Contracting and Real Estate Development Company,104-106 East 126th Street,New York,NY,10035,(212) 281-3800,Service,https://bottomlineconstructiondevelopment.com/,MANHATTAN,40.805518,-73.938066,11,9,196,1054493,1017740067,East Harlem North                                                          
58,Sunny Eyes,Optical Shop,284 Driggs Avenue,Brooklyn,NY,11222,(718) 349-1205,Retail,http://www.sunnyeyeshop.com/,BROOKLYN ,40.722566,-73.948944,1,33,571,3327002,3026810042,Greenpoint                                                                 
59,Angelina Cafe,Cafe/Restaurant,37 Avenue A,New York,NY,10009,(212) 533-7183,Food and Beverage,http://angelinacafenyc.com,MANHATTAN,40.723439,-73.98545,3,2,3002,1077955,1004300010,East Village                                                               
60,Civil Service Bookstore,Bookstore specialty in Civil service test prep materials,34 Carmine Street,New York,NY,10014,(917) 930-4932,Retail,,MANHATTAN,40.730131,-74.003056,2,3,67,1008363,1005270064,West Village                                                               
61,Krypton Neon LLC,"Neon Art, FX, and Signs",526 46th Avenue,Long Island City,NY,11101,(718) 728-4450,Other,http://www.neonshop.com,QUEENS   ,40.747252,-73.954685,2,26,7,4439102,4000270005,Hunters Point-Sunnyside-West Maspeth                                       
62,An Choi,"""Vietnamese Eatery""",85 Orchard Street,New York,NY,10002,(212) 226-3700,Food and Beverage,https://www.instagram.com/anchoinyc/,MANHATTAN,40.717873,-73.990375,3,1,18,1005447,1004130043,Chinatown                                                                  
63,The Soap Box,Laundry & Dry Cleaning Services,110 Saratoga Avenue,Brooklyn,NY,11233,(718) 803-3110,Service,http://soapbox.nyc/,BROOKLYN ,40.682963,-73.91721,3,41,377,3040592,3015050036,Stuyvesant Heights                                                         
64,Elan Flowers,Florist,26 Grand Street,New York,NY,10013,(212) 240-9033,Retail,https://elanflowers.com/,MANHATTAN,40.722869,-74.004777,2,1,47,1077736,1004760045,SoHo-TriBeCa-Civic Center-Little Italy                                     
65,Es La Vida,Shoe Store,5402 5th Avenue,Brooklyn,NY,11220,(718) 567-0918,Retail,http://www.eslavidany.com,BROOKLYN ,40.642778,-74.012752,7,38,76,3014605,3008230040,Sunset Park West                                                           
66,Puerto Rico Perfume,"""Small perfume shop with upscale products for less""",95 Moore Street,Brooklyn,NY,11206,,Retail,,BROOKLYN ,40.703838,-73.941861,1,34,491,3071466,3030970033,East Williamsburg                                                          
67,Princesa Bakery,Great Bakery and small eattery,94 Graham Avenue,Brooklyn,NY,11206,(718) 388-3399,Food and Beverage,,BROOKLYN ,40.704308,-73.942693,1,34,491,3071455,3030970108,East Williamsburg                                                          
68,Florama Hardware,"""Neighborhood fixture. Very helpful and really nice folks""",98 Graham Avenue,Brooklyn,NY,11206,(718) 782-6514,Retail,http://floramahardware.com/,BROOKLYN ,40.70458,-73.94274,1,34,493,3325952,3030890001,Bushwick South                                                             
69,Sherman Orthodontics,"""Children and Adult orthodontists specializing in Invisalign""",157 East 81st Street,New York,NY,10028,(646) 370-3768,Service,http://www.facebook.com/ShermanOrthodontics,MANHATTAN,40.776051,-73.957381,8,5,140,1047565,1015100027,Upper East Side-Carnegie Hill                                              
70,Porteno,Argentine Restaurant,299 10th Avenue,New York,NY,10001,(212) 695-9694,Food and Beverage,http://portenorestaurant.com/,MANHATTAN,40.750368,-74.00223,4,3,99,1012413,1006990031,Hudson Yards-Chelsea-Flatiron-Union Square                                 
71,Junior's Deli & Grocery,"""The Cheers of Delis - You're greeted by name!""",1102 8th Avenue,Brooklyn,NY,11215,(718) 768-4070,Food and Beverage,,BROOKLYN ,40.664458,-73.980312,6,39,151,3026290,3010960038,Park Slope-Gowanus                                                         
72,Bravest,Bar and restaurant,700 Second Avenue,New York,NY,10016,,Food and Beverage,https://www.facebook.com/bravestnyc/,MANHATTAN,40.747201,-73.974102,6,4,78,1021918,1009430059,Murray Hill-Kips Bay                                                       
73,The Art of Becoming,"""Wonderful individual/couple/ group/ family counseling services""",3664 White Plains Road,Bronx,NY,10467,(347) 346-9987,Other,http://www.theartofbecoming.org/,BRONX    ,40.880748,-73.864394,12,12,390,2057890,2046630004,Williamsbridge-Olinville                                                   
74,Sunnyside Pet Healthcare Center,"Veterinarian, Animal Clinic",47-04 Greenpoint Avenue,Sunnyside,NY,11104,(718) 472-4600,Service,http://sunnysidevet.com,QUEENS   ,40.742552,-73.917691,2,26,235,4001513,4001510028,Hunters Point-Sunnyside-West Maspeth                                       
75,Green Kite Realty Group Inc.,Real Estate Office,1231 Lafayette Avenue,Bronx,NY,10474,(646) 479-7873,Service,http://www.greenkiterealty.com,BRONX    ,40.816486,-73.890277,2,17,93,2005939,2027390015,Hunts Point                                                                
76,Harlem Doggie Day Spa,Pet facility,734 Saint Nicholas Avenue,New York,NY,10031,,Service,http://harlemdoggiedayspa.com,MANHATTAN,40.825113,-73.943959,9,9,231,1061137,1020530062,Hamilton Heights                                                           
77,Zeff's Pizzeria,Pizza Shop,312 South 3rd Street,Brooklyn,NY,11211,(718) 599-0545,Food and Beverage,http://www.zeffspizzeriamenu.com/,BROOKLYN ,40.709693,-73.954819,1,34,527,3063334,3024360012,North Side-South Side                                                      
78,Promises Fulfilled,Toy Store,1592 2nd Avenue,New York,NY,10028,,Retail,http://www.promisesnyc.com,MANHATTAN,40.77566,-73.953344,8,5,138,1049910,1015450052,Yorkville                                                                  
79,Veggie Castle,"""Vegetarian food/smoothie store""",13209 Liberty Avenue,Richmond Hill,NY,11419,(718) 641-8342,Food and Beverage,http://veggiecastle2.com/contact/,QUEENS   ,40.690668,-73.813958,10,28,15801,4204064,4095690041,South Ozone Park                                                           
80,Van Nest Lanes,"""Bowling center""",1756 Bronxdale Avenue,Bronx,NY,10462,(718) 792-2220,Other,https://m.facebook.com/pages/Van-Nest-Bowling-Alley/175570635805813,BRONX    ,40.846098,-73.859104,11,13,244,2044481,2040940036,Van Nest-Morris Park-Westchester Square                                    
81,Salon 804,Beauty Salon,2311 Adam Clayton Powell Jr. Blvd,New York,NY,10030,(212) 690-1212,Service,https://www.facebook.com/Salon804/,MANHATTAN,40.815663,-73.943428,10,9,228,1058299,1019200064,Central Harlem North-Polo Grounds                                          
82,ooh la la hair artists,Hair Salon,1894 Victory Blvd,Staten Island,NY,10314,(718) 727-2694,Service,https://www.facebook.com/oohlalahairartistry/,STATEN IS,40.612727,-74.127271,1,50,18701,5018120,5007160008,Westerleigh                                                                
83,Fat Cat Kitchen,Sandwich Shop / Bakery / Coffee Shop,223 East 14th Street,New York,NY,10003,(212) 235-1994,Food and Beverage,http://fatcatkitchen.com,MANHATTAN,40.73301,-73.986487,6,2,48,1019504,1008960011,Gramercy                                                                   
84,Lola's Hair,"""Hair extensions and salon""",52 West 125th Street,New York,NY,10027,(646) 833-7029,Retail,http://www.lolashair.com,MANHATTAN,40.807226,-73.944205,10,9,200,1053476,1017220057,Central Harlem South                                                       
85,Alchemy,Pub,56th 5th Avenue,Brooklyn,NY,11217,,Food and Beverage,http://www.alchemybrooklyn.com,,,,,,,,,
86,Cousin John's,bakery and cafe,70 7th Avenue,Brooklyn,NY,11217,,Food and Beverage,http://www.cousinjohnsbakery.com/,BROOKLYN ,40.675362,-73.974861,6,39,159,3019643,3009510046,Park Slope-Gowanus                                                         
87,LaserCutZ,"""Laser Cutting, Engraving, Prototyping, Signs and Fabrication Shop""",2323 East 12th Street,Brooklyn,NY,11235,(212) 203-1670,Service,http://www.laser-cutz.com,BROOKLYN ,40.593399,-73.959294,15,48,584,3201734,3073960066,Homecrest                                                                  
88,A Taste of Seafood,"""Fish and chips et al""",Frederick Douglass Blvd,New York,NY,10030,,Food and Beverage,http://www.atasteofseafood.com/,,,,,,,,,
89,Oasis Jimma Juice Bar,"""Smoothie & Juice Bar""",3163 Broadway,New York,NY,10027,(646) 590-0685,Food and Beverage,http://oasisjjb.com/,MANHATTAN,40.814654,-73.959058,9,7,211,1059858,1019930092,Morningside Heights                                                        
90,Salamander Sauce Company,"""Hot Sauce Producer""",331 61st Street,Brooklyn,NY,11220,(347) 451-5139,Other,http://www.salamandersauce.com,BROOKLYN ,40.640966,-74.020171,7,38,72,3143404,3057810059,Sunset Park West                                                           
91,Harlem Natural Hair Salon,"""Hair Salon dedicated to those embracing the natural hair movement""",751 St Nicholas Avenue,New York,NY,10031,(212) 694-6593,Service,http://www.harlemnaturalhair.com,MANHATTAN,40.825741,-73.943528,9,9,231,1061453,1020620034,Hamilton Heights                                                           
92,Love Hair Studio,Hair salon,1299 Richmond Road,Staten Island,NY,10304,(718) 980-4247,Service,http://Lovehairstudiony.com,STATEN IS,40.596141,-74.095358,2,50,177,5022206,5008530089,Todt Hill-Emerson Hill-Heartland Village-Lighthouse Hill                   
93,Beacon Paint and Hardware,Paint and Hardware store,371 Amsterdam Avenue,New York,NY,10024,(212) 787-1090,Retail,http://beaconpaint.com/,MANHATTAN,40.78226,-73.978963,7,6,161,1030226,1011490063,Upper West Side                                                            
94,BZ Grill,Gyro and Souvlaki Sandwich Shop,27-02 Astoria Boulevard,Astoria,NY,11102,(718) 932-7858,Food and Beverage,http://bzgrill.com,QUEENS   ,40.77082,-73.920924,1,22,69,4006810,4005730044,Old Astoria                                                                
95,"Babata New York, LLC","""The maker of Babata Handmade Soap""",244 5th Avenue,New York,NY,10001,(800) 827-8584,Retail,http://www.babata.nyc,MANHATTAN,40.744521,-73.987427,5,2,58,1015690,1008290040,Hudson Yards-Chelsea-Flatiron-Union Square                                 
96,sundays nail studio,Nail salon,51 East 25th Street,New York City,NY,10010,(646) 998-5711,Service,http://www.dearsundays.com,MANHATTAN,40.74196,-73.986594,5,2,56,1016750,1008557501,Hudson Yards-Chelsea-Flatiron-Union Square                                 
97,Brooklyn SolarWorks LLC,Solar System Installation,200 6th Street,Brooklyn,NY,11213,(347) 474-7144,Service,http://www.brooklynsolarworks.com/,BROOKLYN ,40.67355,-73.990108,6,39,119,3339454,3009910031,Park Slope-Gowanus                                                         
98,Kelly's Fashion Optical,Retail optical store,529 East 138th Street,Bronx,NY,10454,(718) 618-7543,Retail,https://www.facebook.com/kellysfashionoptical,BRONX    ,40.807279,-73.918536,1,8,39,2000069,2022660037,Mott Haven-Port Morris                                                     
99,Tugboat,Coffee Shop,546 Flatbush Avenue,Brooklyn,NY,11225,(929) 234-3210,Food and Beverage,https://www.tugboatbk.com/,BROOKLYN ,40.660737,-73.960767,9,40,79802,3114594,3050260065,Prospect Lefferts Gardens-Wingate                                          
100,Sutton Clock Shop,Clock Shop - Sales and Repairs - Antique and New,218 East 82nd Street,New York,NY,10028,(212) 758-2260,Retail,http://Suttonclocks.com,MANHATTAN,40.775968,-73.955247,8,5,138,1048576,1015270040,Yorkville                                                                  
101,A to Z Pharmacy,Pharmacy,9407 5th Avenue,Brooklyn,NY,11209,(347) 517-4040,Retail,,BROOKLYN ,40.616359,-74.030616,10,43,162,3155643,3061180010,Bay Ridge                                                                  
102,La Panineria,Sandwich shop,1 west 8th street,New York,NY,10011,,Food and Beverage,http://www.lapanineria.com,MANHATTAN,40.732366,-73.996594,2,3,63,1009432,1005720044,West Village                                                               
103,Astound.Media,Media Agency,686 West 204th Street,New York,NY,10034,,Other,http://Https://astound.media,MANHATTAN,40.867968,-73.923733,12,10,295,1064965,1022390021,Marble Hill-Inwood                                                         
104,Comic Book Jones,Comic Shop,2220 Forest Avenue,Staten Island,NY,10303,(718) 448-1234,Retail,http://ComicbookJones.com,STATEN IS,40.626815,-74.16319,1,49,30302,5141910,5016850090,Mariner's Harbor-Arlington-Port Ivory-Graniteville                         
105,Kellys Fashion Optical,Optical shop,529 East 138th Street,Bronx,NY,10454,(718) 618-7543,Retail,http://facebook.com/kellysfashionoptical,BRONX    ,40.807279,-73.918536,1,8,39,2000069,2022660037,Mott Haven-Port Morris                                                     
106,Ox Verte,"""Plant-forward food company working to reinvent office lunch""",63A Reade Street,New York,NY,10007,(347) 949-8671,Food and Beverage,http://www.oxverte.com,MANHATTAN,40.714972,-74.006551,1,1,21,1001625,1001490003,SoHo-TriBeCa-Civic Center-Little Italy                                     
107,Superior Late Nite Deli,Corner bodega,1402 Cortelyou Road,Brooklyn,NY,11226,(718) 282-3377,Food and Beverage,,BROOKLYN ,40.640883,-73.965153,14,40,520,3118671,3051570001,Flatbush                                                                   
108,Sneakerbar,Sneaker shop,762 East 149th Street,Bronx,NY,10455,(917) 792-4815,Retail,http://www.sneakerbarnewyork.com,BRONX    ,40.812928,-73.90763,1,8,35,2003945,2025800018,Mott Haven-Port Morris                                                     
109,Tenares Hardware Inc,"""Local hardware store with amazing service, and they donate to local schools""",1348 St Nicholas Avenue,New York,NY,10033,(212) 795-8836,Retail,,MANHATTAN,40.847014,-73.935403,12,10,261,1063233,1021330063,Washington Heights South                                                   
110,Grill and Height Deli,"""Dedicated family owned Deli with sandwiches, coffee, breakfast""",508 West 181st Street,New York,NY,10033,(212) 923-3354,Food and Beverage,http://grillandheight.com/print.php,MANHATTAN,40.848321,-73.931379,12,10,269,1063616,1021520072,Washington Heights North                                                   
111,The BKLYN Juice Bar,Juice Bar/Salad Bar,2873 Atlantic Avenue,Brooklyn,NY,11207,(718) 274-0400,Food and Beverage,https://www.facebook.com/bklynjuicebar/,BROOKLYN ,40.677056,-73.888188,5,37,1170,3087867,3039500044,East New York                                                              
112,Dekalb Markethall,Food Plaza,445 Gold Street,Brooklyn,NY,11201,,Food and Beverage,http://www.dekalbmarkethall.com,BROOKLYN ,40.690833,-73.983452,2,33,15,3397861,3001497501,DUMBO-Vinegar Hill-Downtown Brooklyn-Boerum Hill                           
113,Staten Island Beer Company,"""Family owned micro brewery with 11 beers on tap""",20 Kinsey Place,Staten Island,NY,10303,(718) 390-8445,Food and Beverage,https://www.facebook.com/sibeerco/,STATEN IS,40.628554,-74.16943,1,49,323,5028627,5012900092,Mariner's Harbor-Arlington-Port Ivory-Graniteville                         
114,On the Mark Barber Shop,Barber Shop,400 East 13th Street,New York,NY,10009,(212) 529-1900,Service,https://www.facebook.com/On-The-Mark-Barber-Shop-100499773342418/,MANHATTAN,40.730506,-73.982742,3,2,34,1005982,1004400008,East Village                                                               
115,Sammy Dry Cleaners & Tailor,"Dry Cleaners, Tailor",144 East 22nd Street`,New York,NY,10010,(212) 780-9888,Service,,MANHATTAN,40.738645,-73.984794,6,2,68,1018005,1008770057,Gramercy                                                                   
116,Crown Diner Restaurant,"""Beloved anchor on 161 and Gerard Ave for over 20 years""",79 East 161st Street,New York,NY,10451,(718) 538-0309,Food and Beverage,,BRONX    ,40.827564,-73.925088,4,8,195,2002991,2024840035,West Concourse                                                             
117,Bar 180,"""Local Watering Hole with a great happy hour!""",4241 Broadway,New York,NY,10033,(646) 928-3283,Food and Beverage,https://www.facebook.com/bar180nyc/,MANHATTAN,40.849641,-73.936311,12,10,265,1064282,1021760138,Washington Heights South                                                   
118,American Locksmiths,Locksmith,940 3rd Avenue,New York,NY,10022,(212) 888-8888,Service,http://americanlocksmithsny.com/,MANHATTAN,40.759888,-73.967718,6,4,11203,1036880,1013110036,Turtle Bay-East Midtown                                                    
119,The Habitat,"""Neighborhood bar and restaurant""",988 Manhattan Avenue,Brooklyn,NY,11222,,Food and Beverage,http://thehabitatbrooklyn.com/menus,BROOKLYN ,40.73279,-73.954677,1,33,575,3064355,3025330065,Greenpoint                                                                 
120,Performers Edge Dance Academy,Dance Studio,4037 E Tremont Avenue,Bronx,NY,10465,,Service,http://Performersedgedanceacademy.com,BRONX    ,40.819542,-73.817514,10,13,130,2077266,2054450005,Schuylerville-Throgs Neck-Edgewater Park                                   
121,C&S Jewelers,Jewerlery Store,9403 Third Avenue,Brooklyn,NY,11228,(718) 745-9855,Retail,https://www.facebook.com/CandSJewelers/,BROOKLYN ,40.617832,-74.033347,10,43,54,3155473,3061140006,Bay Ridge                                                                  
122,Risk gallery and boutique,Vintage store,232 Varet Street,Brooklyn,NY,11206,(347) 689-9772,Retail,http://www.rosybleu.com/about/,BROOKLYN ,40.704043,-73.934193,1,34,485,3071583,3031180005,Bushwick South                                                             
123,"Water & Stone, a Creative Arts Therapy, PLLC","""Art Therapy Private Practice""",155 Water Street,Brooklyn,NY,11201,(347) 507-2342,Service,http://www.creativelyhealing.com,BROOKLYN ,40.703147,-73.987864,2,33,21,3000026,3000290016,DUMBO-Vinegar Hill-Downtown Brooklyn-Boerum Hill                           
124,Yorkafe,Cafe,501 East 83rd Street,New York,NY,10028,(212) 988-1780,Food and Beverage,https://www.facebook.com/Yorkafe/?rf=592958260716544,MANHATTAN,40.773835,-73.948194,8,5,136,1051178,1015800001,Yorkville                                                                  
125,Crom Physical Culture,Gym/Physical Fitness Center,217 Beach 92nd Street,Far Rockaway,NY,11693,(718) 945-1700,Service,http://www.crompc.com,QUEENS   ,40.586615,-73.815559,14,32,94202,,,Hammels-Arverne-Edgemere                                                   
126,The Baroness,"""Bar & Kitchen: Great selection of Craft Beer, Wines & Best Burgers in NYC""",41-26 Crescent Street,Long Island City,NY,11101,(718) 784-5065,Food and Beverage,http://www.thebaronessbar.com,QUEENS   ,40.75181,-73.939502,1,26,33,4005004,4004140039,Queensbridge-Ravenswood-Long Island City                                   
127,The Craftsman,"""Craft Bar and Café""",3155 Broadway,New York,NY,10027,(212) 933-0602,Food and Beverage,http://thecraftsmannyc.com/,MANHATTAN,40.814536,-73.959144,9,7,211,1059855,1019930086,Morningside Heights                                                        
128,Bettolona,Italian Restaurant,3143 Broadway,New York,NY,10027,(212) 749-1125,Food and Beverage,https://www.facebook.com/Bettolona-145708885479882/,MANHATTAN,40.813993,-73.959542,9,7,211,1059850,1019930076,Morningside Heights                                                        
129,"Metro Dermatology of NY, PC",Medical Dermatology,40-12 80th Street,Elmhurst,NY,11373,(718) 886-9000,Service,http://www.metrodermatology.net,QUEENS   ,40.746925,-73.885707,4,25,267,4036832,4014900012,Elmhurst                                                                   
130,Oxygen Garden Spa,Nail Salon and Spa,4122 Greenpoint Avenue,Sunnyside,NY,11104,(719) 392-8899,Service,,QUEENS   ,40.740114,-73.923743,2,26,18502,4002644,4001970001,Hunters Point-Sunnyside-West Maspeth                                       
131,Pearl Diner,"""Classic free-standing diner that has been open since the 60's""",212 Pearl Street,New York,NY,10038,(212) 344-6620,Food and Beverage,http://www.pearldinerny.com/,MANHATTAN,40.707009,-74.006377,1,1,1502,1001133,1000700020,Battery Park City-Lower Manhattan                                          
132,Down the Hatch,"""Low key bar with games and food - opened in 1991""",179 West 4th Street,New York,NY,10014,(212) 627-9747,Food and Beverage,http://www.nycbestbar.com/downthehatch/,MANHATTAN,40.732475,-74.00179,2,3,71,1010230,1005920036,West Village                                                               
133,Lazy ibis,Cafe,663 Franklin Avenue,Brooklyn,NY,11238,(718) 676-4150,Food and Beverage,https://www.lazyibisnyc.com/,BROOKLYN ,40.675746,-73.956122,8,35,221,3030866,3012240012,Crown Heights North                                                        
134,Peaches Hot House,Southern restaurant,415 Tomkins Avenue,Brooklyn,NY,11216,(718) 483-9111,Food and Beverage,http://www.bcrestaurantgroup.com/hothouse,,,,,,,,,
135,Please,"""Intimacy / sensuality / sexuality education and literacy""",557 5th Avenue,Brooklyn,NY,11215,(718) 788-6969,Retail,http://pleasenewyork.com,BROOKLYN ,40.66547,-73.989377,7,39,141,3023950,3010480010,Park Slope-Gowanus                                                         
136,Kings Highway Bakery,Bakery,292 Kings Highway,Brooklyn,NY,11223,(718) 998-0141,Food and Beverage,https://www.facebook.com/Kings-Highway-Bakery-183079998377651/,BROOKLYN ,40.605127,-73.97975,11,47,426,3176849,3066500076,Bensonhurst East                                                           
137,SKATEYOGI,"""Skateboarding classes and camps""",140 Empire Blvd,Brooklyn,NY,11225,,Service,http://skateyogi.com,BROOKLYN ,40.663475,-73.957777,9,40,327,3000000,3013130046,Prospect Lefferts Gardens-Wingate                                          
138,Grotta Azzurra Restaurant,Classic Italian Restaurant since 1908,177 Mulberry Street,New York,NY,10013,(212) 925-8775,Food and Beverage,http://www.bluegrotta.com,MANHATTAN,40.72033,-73.996916,2,1,41,1006963,1004710014,SoHo-TriBeCa-Civic Center-Little Italy                                     
139,Broadway's Finest Deli,Deli,3620 Broadway,New York,NY,10031,,Food and Beverage,http://www.broadwayfinestdeli.com/,MANHATTAN,40.829065,-73.948516,9,7,233,1062077,1020810001,Hamilton Heights                                                           
140,Corona Wellness Pharmacy Corp.,Pharmacy,96-08 37th Avenue,Corona,NY,11368,(917) 832-6719,Retail,,QUEENS   ,40.751589,-73.870655,3,21,375,4043836,4017590001,North Corona                                                               
141,On Point Financial,Financial Planning,140 Riverside Drive,New York,NY,10024,(917) 231-1813,Service,http://www.onpointfinancialgroup.com,MANHATTAN,40.790374,-73.979596,7,6,175,1033933,1012480001,Upper West Side                                                            
142,The Vitamin Peddler,"""Vitamin and health care goods shop""",364 Amsterdam Avenue,New York,NY,10024,(212) 877-7701,Retail,,MANHATTAN,40.782071,-73.979125,7,6,163,1030887,1011690029,Upper West Side                                                            
143,Hole in the Wall,"""Australian-theme coffee shop with great food""",15 Cliff Street,New York,NY,10038,,Food and Beverage,https://www.holeinthewallnyc.com,MANHATTAN,40.708143,-74.00545,1,1,1502,1085931,1000767501,Battery Park City-Lower Manhattan                                          
144,Sunrise Cleaners,Dry Cleaners,59 Nassau Street,New York,NY,10038,(212) 227-5002,Service,http://www.downtownny.com/sunrise-cleaners-1,MANHATTAN,40.70918,-74.008776,1,1,1502,1001095,1000650004,Battery Park City-Lower Manhattan                                          
145,Founders Workspace,Co-working space,553 Prospect Avenue,Brooklyn,NY,11215,,Service,http://foundersworkspace.com/,BROOKLYN ,40.657223,-73.979074,7,39,171,3027396,3011160001,Windsor Terrace                                                            
146,Cafe Zona Sur,Restaurant,4314 4th Avenue,Brooklyn,NY,11220,(718) 788-1606,Food and Beverage,https://www.cafezonasur.com/,BROOKLYN ,40.650256,-74.008653,7,38,82,3010927,3007280041,Sunset Park West                                                           
147,Barbes,Bar/music venue,376 9th Street,Brooklyn,NY,11215,(347) 422-0248,Food and Beverage,http://www.barbesbrooklyn.com,BROOKLYN ,40.667829,-73.983548,6,39,151,3022340,3010120007,Park Slope-Gowanus                                                         
148,Lacey's Bridge Tavern,"""Great family style restaurant generous portions, great happy hour""",75 Innis Street,Staten Island,NY,10310,(718) 273-7514,Food and Beverage,http://Laceysbridgetavern. Com,STATEN IS,40.633896,-74.143182,1,49,213,5026078,5011210023,Port Richmond                                                              
149,Joya Studio,Fragrance Design Studio + Retail Shop,19 Vanderbilt Avenue,Brooklyn,NY,11205,(718) 852-6979,Retail,http://www.joyastudio.com,BROOKLYN ,40.697196,-73.970634,2,35,211,3054110,3018720015,Fort Greene                                                                
150,City Acupuncture | Bed Stuy,"Acupuncture, Massage, Reiki",1069 Bedford Avenue,Brooklyn,NY,11216,(862) 252-1230,Service,http://www.cityacu.net/bed-stuy-nyc,BROOKLYN ,40.687356,-73.954694,3,36,243,3322164,3017970001,Bedford                                                                    
151,Libreria Barco de Papel,Bookstore,4003 80th Street,Elmhurst,NY,11373,,Retail,http://libreriabarcodepapelny.com,QUEENS   ,40.747339,-73.88576,4,25,26901,4036838,4014910001,Elmhurst                                                                   
152,Della Restaurant,Restaurant,1238 Prospect Avenue,Brooklyn,NY,11218,(718) 633-0249,Food and Beverage,http://www.dellarestaurant.com,BROOKLYN ,40.653017,-73.976146,7,39,50202,3122464,3052740021,Windsor Terrace                                                            
153,Unique Variety Store INC,Variety Store,458 Cary Avenue,Staten Island,NY,10310,(718) 420-1773,Retail,https://www.facebook.com/Unique-Variety-Store-Inc-1561565704121046/,STATEN IS,40.632596,-74.117423,1,49,125,5005790,5002160040,West New Brighton-New Brighton-St. George                                  
154,Kimchee Market,Korean Market with takeout/delivery,191 Greenpoint Avenue,Brooklyn,NY,11222,,Food and Beverage,http://www.kimcheemarket.com/,BROOKLYN ,40.730429,-73.95189,1,33,575,3337043,3025590038,Greenpoint                                                                 
155,Fashion Style Essentials,Women's Accessories Boutique,275A Malcolm X Blvd,Brooklyn,NY,11223,(347) 733-2928,Retail,http://Fashion Style Essentials,BROOKLYN ,40.682963,-73.92905,3,36,383,3046887,3016720003,Stuyvesant Heights                                                         
156,Family Group Daycare,"""Dedicated to help improve the life, care and nourishment of local kids""",1749 Grand Concourse,Bronx,NY,10453,(347) 322-6326,Service,,BRONX    ,40.84593,-73.910096,5,14,22701,2007857,2028220019,Mount Hope                                                                 
157,Brooklyn Herborium,Apothecary and home goods,1301 Prospect Avenue,Brooklyn,NY,11218,(917) 909-0569,Retail,https://brooklynherborium.com/,BROOKLYN ,40.651266,-73.975754,7,39,504,3122840,3052850024,Windsor Terrace                                                            
158,Body & Pole,Aerial dance studio,115 West 27th Street,New York,NY,10001,(212) 334-6900,Service,http://www.bodyandpole.com,MANHATTAN,40.745782,-73.991801,5,3,95,1015068,1008030026,Midtown-Midtown South                                                      
159,Cornelia St Cafe,"Music & arts venue, restaurant",29 Cornelia Street,New York,NY,10014,,Food and Beverage,http://corneliastreetcafe.com,MANHATTAN,40.731358,-74.002353,2,3,67,1010151,1005900045,West Village                                                               
160,Made by Pauline,Macaron bar,151 West 34th Street,New York,NY,10001,(212) 494-1003,Food and Beverage,http://www.Madebypauline.nyc,MANHATTAN,40.750516,-73.989479,5,3,109,1015219,1008100001,Midtown-Midtown South                                                      
161,Smith & Vine,Wine Shop,317 Smithe Street,Brooklyn,NY,11231,,Retail,http://www.smithandvine.com,,,,,,,,,
162,PPI Recording,"""Recording Studio doing music and voice over recording and editing""",19 Mercer Street,New York,NY,10013,(646) 591-0065,Service,http://ppirecording.com/,MANHATTAN,40.720736,-74.001898,2,1,47,1003000,1002300037,SoHo-TriBeCa-Civic Center-Little Italy                                     
163,The Kinsman Barber Shop,Barber Shop,103 West 10th Street,New York,NY,10011,,Service,https://www.yelp.com/biz/the-kinsman-barber-shop-new-york,MANHATTAN,40.734833,-73.998986,2,3,71,1010554,1006060074,West Village                                                               
164,Abacus Pharmacy,Pharmacy,168 Second Avenue,New York,NY,10003,(212) 477-6400,Retail,,MANHATTAN,40.730144,-73.986535,3,2,40,1006435,1004520006,East Village                                                               
165,Monsieur Brunold,Mens Clothing Store and Atelier,323 Lafayette Street,New York,NY,10012,(212) 219-8559,Service,http://www.monsieurbrunold.com/,MANHATTAN,40.725512,-73.994974,2,1,5502,1008221,1005220041,West Village                                                               
166,Leathernecks tatoo,Tatoo shop,667 Fifth Avenue,Brooklyn,NY,11215,,Service,http://leatherneckstattoo.blogspot.com/,BROOKLYN ,40.662102,-73.992625,7,38,143,3017136,3008850004,Park Slope-Gowanus                                                         
167,The Children's General Store,Toy Store,168 East 91st Street,New York,NY,10128,(212) 426-4479,Retail,https://www.facebook.com/tcgstoys/,MANHATTAN,40.78223,-73.952206,8,5,14802,1077064,1015190042,Upper East Side-Carnegie Hill                                              
168,Oly's Hair Salon,Hair Salon,210 East 21st Street,New York,NY,10010,(212) 673-2800,Service,https://www.facebook.com/OlysHairSalonNYC/,MANHATTAN,40.73733,-73.983592,6,2,64,1019627,1009010052,Gramercy                                                                   
169,HNR Deli & Grocery,Bodega/Deli,1223 Church Avenue,Brooklyn,NY,11218,(718) 693-0234,Food and Beverage,,BROOKLYN ,40.647449,-73.968162,14,40,506,3116395,3050730034,Flatbush                                                                   
170,Gnarly Eats,"""Local Burger Joint with southern comfort twist""",447 7th Avenue,Brooklyn,NY,11215,(718) 360-1661,Food and Beverage,http://www.gnarlyeats.com,BROOKLYN ,40.66301,-73.984807,7,39,149,3026635,3011040005,Park Slope-Gowanus                                                         
171,Whisk,Kitchenware & Tabletop Store,933 Broadway,New York,NY,10010,(212) 477-8680,Retail,http://whisknyc.com,MANHATTAN,40.740317,-73.989474,5,2,56,1080767,1008500011,Hudson Yards-Chelsea-Flatiron-Union Square                                 
172,Bon Bon Hair Salon & Spa,Beauty Salon,571 3rd Avenue,New York,NY,10016,(212) 286-2266,Service,https://www.facebook.com/bon.hair1,MANHATTAN,40.748033,-73.976429,6,4,78,1020346,1009180060,Murray Hill-Kips Bay                                                       
173,Cook's Arts & Crafts Shoppe,"""Family run Arts & Crafts shoppe serving the community since 1970.""",80-09 Myrtle Avenue,Glendale,NY,11385,(718) 366-6085,Retail,http://www.cookscrafts.com,QUEENS   ,40.702995,-73.868038,5,30,635,4093559,4038310007,Glendale                                                                   
174,Cupcake Market,Bakery,74 East 7th Street,New York,NY,10009,,Food and Beverage,http://cupcakemarketnyc.com/,MANHATTAN,40.727364,-73.986683,3,2,38,1006278,1004480021,East Village                                                               
175,New Women Space,"""Community event space with women and femme-led programming""",188 Woodpoint Road,Brooklyn,NY,11211,(443) 254-6563,Other,http://newwomenspace.com,BROOKLYN ,40.716335,-73.942037,1,34,477,3398004,3028837502,East Williamsburg                                                          
176,Park Slope Academy of Brazililan Jiu-Jitsu,"Brazilian Jiu-Jitsu Academy, Instruction and Training",518 5th Avenue,Brooklyn,NY,11215,(718) 788-6990,Service,http://psabjj.com,BROOKLYN ,40.666686,-73.988389,6,39,141,3259662,3010340038,Park Slope-Gowanus                                                         
177,In the Marc barber,Barber shop,400 E 13th Street ,New York,NY,,(212) 529-1900,Service,https://yelp.to/qTKq/Ys1CGZBx9C,,,,,,,,,
178,Cheeky Sandwiches,"""Low-key, New Orleans-style sandwich shop""",35 Orchard Sreet,New York,NY,10002,(646) 504-8132,Food and Beverage,http://cheeky-sandwiches.com,,,,,,,,,
179,Major Lock & Glass,Locksmith and glass shop,6618 Fresh Pond Road,Ridgewood,NY,11385,(718) 821-7213,Service,http://www.majorlockglass.com,QUEENS   ,40.708537,-73.898112,5,30,587,4443093,4035270075,Ridgewood                                                                  
180,Stop One Supermarket,Deli,368 Van Brunt Street,Brooklyn,NY,11231,(718) 875-8848,Food and Beverage,http://instagram.com/stoponesupermarket,BROOKLYN ,40.677415,-74.012842,6,38,53,3008584,3005650025,Carroll Gardens-Columbia Street-Red Hook                                   
181,Eastern Queens Boxing Club,Boxing Club,218-14 Hillside Avenue,Queens Village,NY,,(718) 776-6749,"Service, ",http://www.facebook.com/eqbcny,,,,,,,,,
182,UGC Eats,Coffee shop,1674 Park Avenue,New York,NY,10035,,Food and Beverage,http://ugceats.com/,MANHATTAN,40.80047,-73.942387,11,9,184,1051691,1016230040,East Harlem North                                                          
183,Peter Cooper Shoe Repair,The Best Shoe Repair in Chelsea,239 East 24th Street,New York,NY,10010,(212) 889-4558,Service,,MANHATTAN,40.738968,-73.981391,6,2,66,1019789,1009050023,Murray Hill-Kips Bay                                                       
390,Venus Laundromat,Laundomat,7022 13th Avenue,Brooklyn,NY,11228,(718) 238-4648,Service,,BROOKLYN ,40.622978,-74.004665,10,43,196,3157032,3061660049,Dyker Heights                                                              
184,Healing Expressions Unlimited,"""Licensed Massage Therapy, creative life coaching and healing arts""",40 Exchange Place,New York,NY,10005,(646) 286-2814,Service,http://www.healingeu.com,MANHATTAN,40.705939,-74.010283,1,1,9,1000825,1000250027,Battery Park City-Lower Manhattan                                          
185,Meurice Garment Care,"""Dry Cleaning, Shirt Laundry, Interior Cleaning and more""",31 University Place,New York,NY,10003,(212) 475-2778,Service,http://www.garmentcare.com,MANHATTAN,40.731926,-73.99449,2,2,59,1009090,1005607501,West Village                                                               
186,Ayurveda Cafe,Vegetarian Indian restaurant,706 Amsterdam Avenue,New York,NY,10025,(212) 932-2400,Food and Beverage,http://theayurvedacafe.com,MANHATTAN,40.792922,-73.971202,7,6,183,1033678,1012420031,Upper West Side                                                            
187,Farafina,Cafe and Lounge,1813 Amsterdam Avenue,New York,NY,10031,(212) 281-2445,Food and Beverage,http://www.farafinacafeloungeharlem.com/,MANHATTAN,40.828204,-73.945427,9,7,231,1061564,1020640060,Hamilton Heights                                                           
188,Regal Finishing,Wood Refinisher,789 East 139th Street,Bronx,NY,10454,(718) 665-6320,Service,https://www.facebook.com/RegalFinishing/,BRONX    ,40.804517,-73.909903,1,17,19,2004019,2025910088,Mott Haven-Port Morris                                                     
189,Tournesol Wellness,"""Integrative medical and healing arts haven""",26 East 36th Street,New York,NY,10016,(646) 395-1114,Service,http://www.tournesolwellness.com,MANHATTAN,40.748921,-73.981742,6,4,82,1017129,1008650053,Murray Hill-Kips Bay                                                       
190,Marine Park Hardware,Hardware store,3502 Avenue S,Brooklyn,NY,11234,(718) 375-1821,Retail,https://www.facebook.com/Marine-Park-Hardware-Corporation-100286580031174/,BROOKLYN ,40.609338,-73.931956,18,46,658,3240913,3085210038,Georgetown-Marine Park-Bergen Beach-Mill Basin                             
191,The Health Nuts,Natural Food Store and Deli,835 2nd Avenue,New York,NY,10017,(212) 490-2979,Food and Beverage,http://www.manhattanhealthfoodstore.com/,MANHATTAN,40.751493,-73.971003,6,4,90,1037574,1013180022,Turtle Bay-East Midtown                                                    
192,D Coluccio and Sons,"""Great family run food business""",1214 60th Street,Brooklyn,NY,11219,(718) 436-6700,Retail,http://www.dcoluccioandsons.com/,BROOKLYN ,40.629837,-74.000205,12,44,192,3141268,3057180008,Borough Park                                                               
193,Naked Fitness Café,"""Healthy food cafe/meal preps""",1756 East 174 Street,Bronx,NY,10472,,Food and Beverage,http://www.lookbetternakedny.com,BRONX    ,40.834783,-73.869207,9,18,76,2124598,2038740047,West Farms-Bronx River                                                     
194,Gowanus Darkroom,"""Community Darkroom for analog and digital photography""",160 7th Street,Brooklyn,NY,11215,(718) 788-1751,Service,http://gowanusdarkroom.com,BROOKLYN ,40.673331,-73.991395,6,39,121,3021770,3009960017,Park Slope-Gowanus                                                         
195,Bronx Alehouse,"""Craft beer and comfort fare in a local pub""",216 West 238th Street,Bronx,NY,10462,(718) 601-0204,Food and Beverage,http://bronxalehouse.com,BRONX    ,40.884758,-73.899534,8,11,283,2016180,2032700054,Spuyten Duyvil-Kingsbridge                                                 
196,Atlantic ChipShop,"""Fish and Chips, English pub""",129 Atlantic Avenue,Brooklyn,NY,11201,,Food and Beverage,http://www.chipshopnyc.com/,BROOKLYN ,40.690623,-73.99572,2,33,7,3002742,3002750020,Brooklyn Heights-Cobble Hill                                               
197,WMA Karate,Karate studio,67 Atlantic Avenue,Brooklyn,NY,11201,,Service,http://wmakarate.com,BROOKLYN ,40.69129,-73.998128,2,33,7,3002257,3002580105,Brooklyn Heights-Cobble Hill                                               
198,Nancy's Fashions,Clothing and accessories,3872 Broadway,New York,NY,10032,(212) 927-4228,Retail,,MANHATTAN,40.836937,-73.942763,12,7,245,1062854,1021200008,Washington Heights South                                                   
199,Soccer Friends USA,"""Soccer Program for Kids!""",10606 Queens Blvd,Forest Hills,NY,11375,(718) 261-2403,Service,http://www.soccerfriendsusa.com/,QUEENS   ,40.72212,-73.847335,6,29,711,4077479,4032370040,Forest Hills                                                               
200,Silver Blade Fencing Academy,Fencing club,1205 Avenue P,Brooklyn,NY,11229,(718) 483-6677,Other,http://www.silverbladefencing.com/index.php/home/,BROOKLYN ,40.610126,-73.961207,14,48,542,3181726,3067590052,Midwood                                                                    
201,KSW Trading Corp.,Silk Flower Wholesaler,5726 1st Avenue,Brooklyn,NY,11220,(718) 938-4333,Retail,http://www.ussilkflower.com/,BROOKLYN ,40.646312,-74.023427,7,38,18,3014854,3008270012,Sunset Park West                                                           
202,BodyTonic Pilates Gymnasium,Pilates Studio,150 5th Avenue,Brooklyn,NY,11217,(718) 622-6222,Service,http://www.body-tonic.com,BROOKLYN ,40.678171,-73.979281,6,39,131,3019357,3009460046,Park Slope-Gowanus                                                         
203,Shree Convenience Inc,Convenience Store,169-07 Hillside Avenue,Jamaica,NY,11432,(718) 740-0856,Food and Beverage,,QUEENS   ,40.710787,-73.792848,8,24,458,4210573,4098440001,Jamaica Estates-Holliswood                                                 
204,Lana's Loft,"""Women's Retail Clothing and Accessories. Alteration and Tailoring Services too!""",11404 Beach Channel Drive,Rockaway Beach,NY,11694,(718) 945-5885,Retail,http://www.facebook.com/lanasloftboutique,QUEENS   ,40.582261,-73.836599,14,32,938,4303759,4161660299,Breezy Point-Belle Harbor-Rockaway Park-Broad Channel                      
205,Mandolino,Authentic Italian restaurant,137 East 13th Street,New York,NY,10003,(646) 234-4217,Food and Beverage,http://Mandolinonyc.com,MANHATTAN,40.733158,-73.988973,3,2,42,1087670,1005597502,East Village                                                               
206,Raw Organic Root,"""Health Coach and Water Consultant""",8 West 126 Street,New York City,NY,10027,(929) 228-1077,Service,http://www.raworganicroot.com,MANHATTAN,40.80734,-73.942384,10,9,200,1000000,1017230031,Central Harlem South                                                       
207,Lucca Hill Custom Clothing,Men's Custom Clothes,1003 Avenue of the Americas,New York,NY,10018,(732) 768-5114,Retail,http://www.luccahill.com,MANHATTAN,40.751883,-73.986278,5,4,109,1015255,1008130031,Midtown-Midtown South                                                      
208,Kulushkat,Falafel,1137b Washington Avenue,Brooklyn,NY,11225,,Food and Beverage,http://www.kulushkat.com,BROOKLYN ,40.661171,-73.960695,9,40,79801,,,Prospect Lefferts Gardens-Wingate                                          
209,QED,"""After-school for adults. Shows, classes, arts & crafts, screenings, lectures, events""",27-16 23rd Avenue,Astoria,NY,11105,(347) 451-3873,Other,https://qedastoria.com/,QUEENS   ,40.775899,-73.915062,1,22,97,4018044,4008530043,Steinway                                                                   
210,Panorama Restaurant,Restaurant,87-16 Astoria Blvd East,Elmhurst,NY,11370,(718) 505-9162,Food and Beverage,https://www.facebook.com/panoramarestaurant87/,QUEENS   ,40.764142,-73.882017,3,22,329,4000000,4010990060,Jackson Heights                                                            
211,Arturo's Restaurant,Italian Restaurant,1617 York Avenue,New York,NY,10028,(212) 535-4480,Food and Beverage,http://www.arturoscafe.com/,MANHATTAN,40.77546,-73.947477,8,5,14401,1050540,1015650022,Yorkville                                                                  
212,Inborn Tattoo,Tattoo Art shop,85 Ludlow Street,New York,NY,10002,(212) 387-8480,Service,http://inborntattoonyc.com/www/,MANHATTAN,40.718164,-73.989347,3,1,18,1005292,1004090023,Chinatown                                                                  
213,Brahman Yoga Harlem,Yoga Studio,501 West 145th Street,New York,NY,10031,(917) 994-7071,Service,http://www.Brahmanyoganyc.com,MANHATTAN,40.825414,-73.948009,9,7,229,1061939,1020770029,Hamilton Heights                                                           
214,Park Chemist,Pharmacy,164 5th Avenue,Brooklyn,NY,11217,(914) 843-7878,Retail,http://parkchemistsrx.com,BROOKLYN ,40.677828,-73.979511,6,39,131,3019364,3009460054,Park Slope-Gowanus                                                         
215,Soccer Friends USA,Soccer Classes for Children,106-06 Queens Boulevard,Forest Hills,NY,11375,(718) 261-2403,Service,http://www.soccerfriendsusa.com/,QUEENS   ,40.72212,-73.847335,6,29,711,4077479,4032370040,Forest Hills                                                               
216,Shanghai Heping,Restaurant,104 Mott Street,New York,NY,10013,(212) 925-1118,Food and Beverage,http://www.shanghaihepingnyc.com/,MANHATTAN,40.717423,-73.997374,2,1,41,1002617,1002040005,SoHo-TriBeCa-Civic Center-Little Italy                                     
217,Poketown,Restaurant,177 Hester Street,New York,NY,10013,(646) 682-9651,Food and Beverage,http://poketownny.com/,MANHATTAN,40.71792,-73.997226,2,1,41,1003096,1002370029,SoHo-TriBeCa-Civic Center-Little Italy                                     
218,Carol's Buns,Restaurant,139 East Broadway,New York,NY,10002,(212) 566-0203,Food and Beverage,http://www.carolsbun.com/,MANHATTAN,40.713926,-73.991574,3,1,6,1003573,1002830035,Lower East Side                                                            
219,Focus Beauty Hair Salon,Hair Salon,40 Bowery,New York,NY,10013,(212) 431-5387,Service,,MANHATTAN,40.715601,-73.996476,3,1,29,1002433,1002020030,Chinatown                                                                  
220,Cutting Board,Restaurant,53 Bayard Street,New York,NY,10013,(212) 528-0188,Food and Beverage,http://www.cuttingboardnewyork.com/,MANHATTAN,40.715274,-73.997507,3,1,29,1001796,1001630028,Chinatown                                                                  
221,May Wah Vegetarian Market,"""Asian vegeterian frozen foods & spices""",213 Hester Street,New York,NY,10013,(212) 334-4428,Food and Beverage,http://www.maywahnyc.com,MANHATTAN,40.718554,-73.999037,2,1,41,1003059,1002350001,SoHo-TriBeCa-Civic Center-Little Italy                                     
222,Sam's Fried Ice Cream,Dessert,37B Orchard Street,New York,NY,10002,(646) 833-7538,Food and Beverage,http://samsfriedicecream.com,MANHATTAN,40.715801,-73.991436,3,1,16,,,Chinatown                                                                  
223,Old Cove Integrators LLC,Home Automation Services,118 East 28th Street,New York,NY,10016,(212) 628-5300,Service,http://oldcovellc.com,MANHATTAN,40.742921,-73.983129,5,2,68,1018164,1008830014,Gramercy                                                                   
224,Hot Bialys Bagels,Bagel store,116-63 Queens Blvd,Forest Hills,NY,11375,(718) 544-0900,Food and Beverage,,QUEENS   ,40.715955,-73.833309,6,29,75701,4052806,4022680023,Forest Hills                                                               
225,Irish Haven,Pub,5721 Fourth Avenue,Brooklyn,NY,11220,(718) 439-9893,Food and Beverage,https://www.facebook.com/pages/Irish-Haven/561356407382149,BROOKLYN ,40.64238,-74.016813,7,38,74,3337333,3008470001,Sunset Park West                                                           
226,Lucky Dog's Laundromat,"Laundromat, Dry Cleaning, Tailoring & Alterations",6012 18th Avenue,Brooklyn,NY,11204,(718) 331-2319,Service,,BROOKLYN ,40.621888,-73.987403,12,44,244,3328525,3055180043,Borough Park                                                               
227,Joe's Place Restaurant/Bar,"""You Feel Like Home""",1841 Westchester Avenue,Bronx,NY,10472,(718) 918-2947,Food and Beverage,http://www.joesplacebronx.com,BRONX    ,40.832444,-73.864435,9,18,76,2027967,2038790006,West Farms-Bronx River                                                     
228,Queen's Vintage Palace,"Vintage Clothing, Records and Sundries",1667 Amsterdam Avenue,New York,NY,10031,(917) 309-5968,Retail,https://www.facebook.com/QueensVintagePalace/,MANHATTAN,40.823551,-73.948823,9,7,227,1061246,1020580029,Hamilton Heights                                                           
229,Manhattanville Coffee,Coffee shop,142 Edgecombe Avenue,New York,NY,10030,(646) 781-9900,Food and Beverage,http://manhattanvillecoffee.com,MANHATTAN,40.821318,-73.944732,10,9,259,1060761,1020437503,Central Harlem North-Polo Grounds                                          
230,Zurilee,Restaurant and wood-fired pizza,755 Flatbush Avenue,Brooklyn,NY,11226,(718) 513-6084,Food and Beverage,https://zurileepizza.com,BROOKLYN ,40.654358,-73.959592,14,40,79602,3116190,3050640014,Prospect Lefferts Gardens-Wingate                                          
231,Martinez Dance Studio,"""Lessons in Salsa, Argentine Tango, Latin Ballroom & American Ballroom Dancing""",38-12 30th Street,Long Island City,NY,11101,(718) 932-4344,Service,http://www.martinezdancestudios.com,QUEENS   ,40.753945,-73.933014,1,26,31,4004642,4003840021,Queensbridge-Ravenswood-Long Island City                                   
232,Cascalote Latin Bistro,Latin restaurant,2126 2nd Avenue,New York,NY,10029,(646) 351-6574,Food and Beverage,https://www.facebook.com/CascaloteLatinBistro/,MANHATTAN,40.79274,-73.94088,11,8,180,1052827,1016810003,East Harlem North                                                          
233,87st deli Inc,Sandwiches,1665 1st avenue,New York,NY,11001,(212) 831-4384,Food and Beverage,,,,,,,,,,
234,Chasing Tails,"""Bay ridge gem. Great and amazing staff. They take care and love all dogs""",911 66 street,Brooklyn,NY,11219,,Service,http://chasingtailsny.com,BROOKLYN ,40.630504,-74.01065,10,38,120,3328854,3057500026,Sunset Park East                                                           
235,Beach Bistro 96,Brazilian traditional cuisine,95-19 Rockaway Beach Blvd,Rockaway Park,NY,11693,(718) 474-6000,Food and Beverage,http://www.beachbistro96.com,QUEENS   ,40.585436,-73.817751,14,32,94201,4303777,4161680041,Breezy Point-Belle Harbor-Rockaway Park-Broad Channel                      
236,Dial Locksmith Corporation,"Key Duplication, Locksmith",206 West 96 Street,New York,NY,10025,(212) 678-6260,Service,,MANHATTAN,40.794193,-73.970725,7,6,183,1033706,1012430038,Upper West Side                                                            
237,Bagels on the Avenue,Bagel and sandwich shop,33-15 30th Avenue,Astoria,NY,11103,(718) 721-0600,Food and Beverage,http://bagelsontheaveny.com/,QUEENS   ,40.766065,-73.919576,1,22,6501,4009152,4006270043,Astoria                                                                    
238,Bnytech Inc laptop and computer repair,"Laptops, projectors and Apple products repair in New York",481 8th Avenue Suite 549,New York,NY,10001,(212) 361-9979,Service,http://www.bnytech.com,MANHATTAN,40.752295,-73.993402,4,3,111,1013561,1007580037,Hudson Yards-Chelsea-Flatiron-Union Square                                 
239,Chiffon's Kosher Cake Center,Bakery/Pastry shop,430 Avenue P,Brooklyn,NY,11223,(718) 998-7530,Food and Beverage,http://www.shopchiffons.com,BROOKLYN ,40.608968,-73.971541,15,44,422,3175949,3066340001,Homecrest                                                                  
240,Da Ciro Brooklyn Trattoria E Pizzeria,Italian Restaurant,458-460 Myrtle Avenue,Brooklyn,NY,11205,,Food and Beverage,http://www.DaCiroBrooklyn.com,BROOKLYN ,40.6933,-73.967159,2,35,195,3054816,3019030026,Clinton Hill                                                               
241,Jodi's Gym,Children's Gymnastics Studio,244 E 84th Street,New York,NY,10028,(212) 772-7633,Other,http://www.jodisgym.com/,MANHATTAN,40.77706,-73.95391,8,5,138,1048710,1015290027,Yorkville                                                                  
242,Pa-Nash,Restaurant,144-14 243rd Street,Rosedale,NY,11422,(718) 978-6094,Food and Beverage,http://www.panashnyc.com/,QUEENS   ,40.66018,-73.73947,13,31,654,4287998,4135490005,Rosedale                                                                   
243,The Door,Restaurant,163-07 Baisely Blvd,Jamaica,NY,11434,(718) 525-1083,Food and Beverage,http://thedoorrestaurant.nyc/,,,,,,,,,
244,Sangria,Restaurant,95-41 Sutphin Blvd,Jamaica,NY,11435,(718) 291-7488,Food and Beverage,http://sangriatapasjamaica.com/16420,QUEENS   ,40.698212,-73.806328,12,28,208,4214514,4100270023,Jamaica                                                                    
245,Bright Eyes Vision Care,Eye Care/Vision,12221 Guy R Brewer Blvd,Jamaica,NY,11434,(718) 527-0550,Service,http://www.brighteyesvisioncare.net/,QUEENS   ,40.679005,-73.779899,12,27,284,4268327,4123800014,Baisley Park                                                               
246,Harlem Shake,"""Fast-casual restaurant serving burgers, shakes and good times""",100 West 124 Street,New York,NY,10027,(212) 222-8300,Food and Beverage,http://www.harlemshakenyc.com,MANHATTAN,40.807293,-73.946455,10,9,222,1057790,1019080035,Central Harlem South                                                       
247,Tribeca Health & Fitness,gym,107 Chambers Street,New York,NY,10007,(212) 732-9466,Service,http://www.TribecaGym.com,MANHATTAN,40.715076,-74.008243,1,1,21,1001591,1001457501,SoHo-TriBeCa-Civic Center-Little Italy                                     
248,San Marzano,Restaurant,117 2nd Avenue,New York,NY,10003,(212) 777-3600,Food and Beverage,http://sanmarzanonyc.com/,MANHATTAN,40.727894,-73.988191,3,2,38,1006651,1004620023,East Village                                                               
249,Work Hard. Train Harder! Fitness,"""Fitness Studio providing personal training and group classes""",301 West 135th Street,New York,NY,10030,(872) 222-9485,Service,http://www.workhardtrainharder.com,MANHATTAN,40.81654,-73.946611,10,9,22102,1059461,1019600011,Central Harlem North-Polo Grounds                                          
250,Brooklyn Heights Deli,Deli,292 Henry Street,Brooklyn,NY,11201,(718) 643-1361,Food and Beverage,http://brooklynheightsdelibk.com/food-delivery-TW/brooklyn-heights-deli-brooklyn.26487.r?QueryStringValue=naBjkh0MsbYIefUaOVwkAg==,BROOKLYN ,40.69132,-73.995972,2,33,7,3002730,3002740040,Brooklyn Heights-Cobble Hill                                               
251,DAVES LIQUOR,"""Family-owned store located in Far Rockaway for 15+yrs""",8704 Rockaway Beach Blvd,Far Rockaway,NY,11693,(718) 634-7591,Food and Beverage,https://www.facebook.com/Avoidhangoversstaydrunk/?hc_ref=PAGES_TIMELINE,QUEENS   ,40.587433,-73.81232,14,32,94202,4303426,4161210138,Hammels-Arverne-Edgemere                                                   
252,Namastuy Healing Collective,"""Yoga studio - Healing center""",325 Lewis Avenue,Brooklyn,NY,11221,,Other,http://www.namastuy.com,BROOKLYN ,40.684536,-73.935351,3,36,295,3045728,3016550005,Stuyvesant Heights                                                         
253,Ltauha,Restaurant,55-50 Myrtle Avenue,Ridgewood,NY,11385,,Food and Beverage,http://www.ltauha.com/,QUEENS   ,40.700044,-73.90682,5,34,553,4085459,4035460056,Ridgewood                                                                  
254,Di Palo's Fine Foods,"""Family-owned Italian market since 1925""",200 Grand Street,Manhattan,NY,10012,,Retail,https://www.facebook.com/Di-Palos-127452200642761/,MANHATTAN,40.719144,-73.996739,2,1,41,1006992,1004710052,SoHo-TriBeCa-Civic Center-Little Italy                                     
255,George Ranalli Architect,"""Since 1977, award-winning architecture and design at every scope and scale""",1361 Amsterdam Avenue,New York,NY,10027,(212) 255-6263,Service,http://www.georgeranalli.com,MANHATTAN,40.814216,-73.95564,9,7,21303,1081781,1019670040,Manhattanville                                                             
256,Baby Fingers LLC,"""Sign Language and Music classes for babies, toddlers, preschoolers, families""", New York,New York,NY,10024,(212) 874-5978,Service,http://mybabyfingers.com,,,,,,,,,
257,BREAD,Italian Café,40 Kenmare Street,New York,NY,10012,,Food and Beverage,http://www.bread-nolita.com,MANHATTAN,40.720752,-73.995368,2,1,41,,,SoHo-TriBeCa-Civic Center-Little Italy                                     
258,Tinkersphere,Technology and Electronics Hobby Supply Retail Store,304 East 5th Street,New York,NY,10003,,Retail,http://tinkersphere.com/,MANHATTAN,40.726593,-73.988567,3,2,38,1006206,1004460009,East Village                                                               
331,Burger Club,Restaurant,3202 30th Avenue,Astoria,NY,11102,,Food and Beverage,http://www.burger-club.com,QUEENS   ,40.766453,-73.92046,1,22,63,4008590,4006160133,Astoria                                                                    
259,Papi's Grill,Mexican restaurant,161 7th Avenue,Brooklyn,NY,11215,(917) 909-0589,Food and Beverage,http://www.papisgrillbrooklyn.com/,BROOKLYN ,40.672223,-73.977123,6,39,157,3025041,3010740001,Park Slope-Gowanus                                                         
260,Sal's,Greasy spoon with delicious sandwiches,810 Franklin,Brooklyn,NY,11225,(787) 203-2669,Food and Beverage,,,,,,,,,,
261,The Ink Pad,Rubber Stamp/Craft Store,37 7th Avenue,New York,NY,10011,(212) 463-9876,Retail,http://theinkpadnyc.com,MANHATTAN,40.737718,-74.000281,2,3,71,1010598,1006080009,West Village                                                               
262,On The Move,Bicycle Shop,259 13th Street,Brooklyn,NY,11215,(718) 768-4998,Retail,http://onthemovenyc.com/,BROOKLYN ,40.667059,-73.988883,6,39,139,3023169,3010280048,Park Slope-Gowanus                                                         
263,Min-k,Clothing boutique,145 5th Avenue,New York,NY,11217,(718) 789-1329,Retail,https://minjikim.carbonmade.com,BROOKLYN ,40.678124,-73.979288,6,39,131,3019400,3009470009,Park Slope-Gowanus                                                         
264,Silvana,"Restaurant, Bar, Live Music",300 West 116th Street,New York,NY,10026,(646) 692-4935,Food and Beverage,http://silvana-nyc.com,MANHATTAN,40.804505,-73.955593,10,9,20102,1055855,1018480053,Central Harlem South                                                       
369,I Love Foods,Supermarket,48-18 Broadway,Queens,NY,11103,(718) 956-0040,Retail,https://www.facebook.com/thenewilovefoodssupermarket/,QUEENS   ,40.755907,-73.912492,1,26,161,4013642,4007340038,Astoria                                                                    
265,Minton's Playhouse,"Jazz Club, Bar, Restaurant",206 West 118th Street,New York,NY,10026,(212) 243-2222,Food and Beverage,http://mintonsharlem.com,MANHATTAN,40.804663,-73.951915,10,9,218,1058396,1019230038,Central Harlem South                                                       
266,Brooklyn Whiskers,Vegan bakery (with a kitty theme!),760 Bushwick Avenue,Brooklyn,NY,11221,(718) 975-7044,Food and Beverage,http://www.brooklynwhiskersbakery.com/,BROOKLYN ,40.695666,-73.929293,4,34,393,3073429,3032290026,Bushwick South                                                             
267,Patrick J. Falci &a Daughters Inc.,Real estate sales,164-11 Northern Blvd,Flushing,NY,11358,,Service,http://Falcianddaughters.com,QUEENS   ,40.760699,-73.80185,7,19,1171,4120511,4053390005,Murray Hill                                                                
268,Khalifa's Animal House,Dog Walking Company,121-A Hull Street,Brooklyn,NY,11233,(347) 331-4722,Service,http://khalifashouse.com,,,,,,,,,
269,Woodwork,"Soccer, sports bar with a great neighborhood vibe",538 Vanderbilt Avenue,Brooklyn,NY,11217,(718) 857-5777,Food and Beverage,http://woodworkbk.com,BROOKLYN ,40.680631,-73.967807,8,35,163,,,Prospect Heights                                                           
270,Suzette LaValle Boutique,"""Fresh Fashion Accessories Gifts and Home Items, at Affordable Prices""",726 Franklin Avenue,Brooklyn,NY,11238,(646) 281-4029,Retail,http://www.suzettelavalle.com,BROOKLYN ,40.673707,-73.956884,8,35,217,3029281,3011680053,Crown Heights North                                                        
271,Confectionary!,Vegan chocolate shop,440 East 9th Street,New York,NY,10009,,Food and Beverage,https://www.facebook.com/pg/confectioneryNYC/about/?ref=page_internal,MANHATTAN,40.727775,-73.983916,3,2,32,1077642,1004360029,East Village                                                               
272,Mala Project,Modern Chinese,122 1st Avenue,New York,NY,10009,,Food and Beverage,http://malaproject.nyc/,MANHATTAN,40.727188,-73.985572,3,2,32,1005815,1004350004,East Village                                                               
273,The Wayland,Bar,700 E 9th Street,New York,NY,10009,,Food and Beverage,https://thewaylandnyc.com/,MANHATTAN,40.725224,-73.977848,3,2,2602,1004529,1003780009,Lower East Side                                                            
274,Hub Thai,Thai restaurant,105 Avenue Avenue,New York,NY,10009,,Food and Beverage,http://hubthainyc.com/,,,,,,,,,
275,Sunnyside String School,"""Music, art, Lego school for kids""",46-01 Greenpoint Avenue,Sunnyside,NY,11104,(347) 699-6641,Service,http://www.sunnystrings.com,QUEENS   ,40.742243,-73.918749,2,26,235,4533708,4001520007,Hunters Point-Sunnyside-West Maspeth                                       
276,Andy Grocery,Deli,4220 34th Avenue,Long Island City,NY,11101,,Food and Beverage,,QUEENS   ,40.755698,-73.918791,1,26,159,4011001,4006750222,Astoria                                                                    
277,31st Ave Deli Stop,"Deli, Mexican Grill",4301 31st Avenue,Astoria,NY,11103,,Food and Beverage,http://31stavestopdeli.com/,QUEENS   ,40.760138,-73.914569,1,22,149,4011965,4006970008,Astoria                                                                    
278,Busy Bee Food Exchange,Grocery Store,185 Nassau Avenue,Brooklyn,NY,11222,,Food and Beverage,http://busybeefoodexchange.com,BROOKLYN ,40.725455,-73.945727,1,33,571,3066388,3026530037,Greenpoint                                                                 
279,Off The Bridge Coffee,"""Bicycle repair & coffee!""",105 Canal Street,New York,NY,10002,,Service,https://www.instagram.com/explore/locations/852037431/,MANHATTAN,40.71559,-73.994142,3,1,16,1081956,1003010001,Chinatown                                                                  
280,Lucky Luna,"""Bar, Taiwanese & Mexican street food""",167 Nassau Avenue,Brooklyn,NY,11222,,Food and Beverage,http://luckyluna-ny.com,BROOKLYN ,40.725209,-73.946474,1,33,571,3066333,3026520033,Greenpoint                                                                 
281,Lily Food Store,Green Grocer,1932 Fulton Street,Brooklyn,NY,11233,,Food and Beverage,,BROOKLYN ,40.678871,-73.921776,3,41,299,3338117,3017040037,Crown Heights North                                                        
282,Serrata Shop Smart,Deli,218 Ralph Avenue,Brooklyn,NY,11233,,Food and Beverage,,BROOKLYN ,40.682195,-73.922597,3,41,381,3047662,3016830050,Crown Heights North                                                        
478,Meticulous Mimi's Chore Service,Cleaning service,Baltic st,Brooklyn,NY,11217,,Service,http://Meticulousmimischoreservice.com,,,,,,,,,
283,Olly Oxen Free Vintage,Vintage Store,137 Montrose Avenue,Brooklyn,NY,11206,(347) 762-5048,Retail,http://www.ollyoxenfreevintage.com,BROOKLYN ,40.70727,-73.94395,1,34,505,3071126,3030520030,East Williamsburg                                                          
284,BKJani,"""Small place that offers excellent food cooked by the most incredible human being""",276 Knickerbocker Avenue,Brooklyn,NY,11237,(347) 460-5110,Food and Beverage,https://www.facebook.com/bkjaninyc/,BROOKLYN ,40.702181,-73.924294,4,34,429,3072947,3032090031,Bushwick North                                                             
285,Bnytech Inc laptop and computer repair,"Laptops, projectorso and Apple products repair in New York",481 8th Avenue,New York,NY,10001,(212) 361-9979,Service,http://www.bnytech.com,MANHATTAN,40.752295,-73.993402,4,3,111,1013561,1007580037,Hudson Yards-Chelsea-Flatiron-Union Square                                 
286,Aden Deli & Grill,"""Great full service deli that is suffering due to subway station closure""",5309 4th Avenue,Brooklyn,NY,11220,,Food and Beverage,,BROOKLYN ,40.644669,-74.014435,7,38,76,3014233,3008150007,Sunset Park West                                                           
287,Quechua Nostra,Peruvian Restaurant,1634 Lexington Avenue,New York,NY,10472,(212) 410-0707,Food and Beverage,https://www.facebook.com/quechuanostra/,,,,,,,,,
288,The HideOut,Dive Bar,8411 Fifth Avenue,Brooklyn,NY,11209,(917) 680-9131,Food and Beverage,https://www.facebook.com/hideoutbayridge/?rf=490532277660734,BROOKLYN ,40.622698,-74.025407,10,43,142,,,Bay Ridge                                                                  
289,Your neighborhood office,"""Office services concierge services shipping packing""",332 Bleecker Street,New York,NY,10014,(213) 989-8303,Service,http://www.neighborhoodoffice.com/,MANHATTAN,40.733529,-74.004352,2,3,73,1011145,1006190033,West Village                                                               
290,Emerge Boutique Wellness Studio,"""Wellness Center that promotes healing through yoga, dance, healing arts, etc""",380 Macdonough Street,Brooklyn,NY,11233,,Service,https://www.facebook.com/emergeboutiquewellnessstudio/,BROOKLYN ,40.682432,-73.931312,3,36,297,3047136,3016760011,Crown Heights North                                                        
291,Yaf Sparkle,Jewelry store,249 Broome Street,New York,NY,10002,(646) 682-6996,Retail,https://www.yafsparkle.com/,MANHATTAN,40.717991,-73.98982,3,1,18,1005275,1004080011,Chinatown                                                                  
292,Shrine World Music Venue,Live Music Club,2271 Adam Clayton Powell Boulevard,New York,NY,10030,(212) 690-7807,Other,http://shrinenyc.com/,,,,,,,,,
293,Made Fresh Daily,"Breakfast, Lunch, Brunch, Bakery, Restaurant, Beverages",226 Front Street,New York,NY,10038,(212) 585-2253,Food and Beverage,http://www.madefreshdailybakeshop.com/,MANHATTAN,40.70752,-74.002168,1,1,1501,1001342,1000970036,Battery Park City-Lower Manhattan                                          
294,Pa-Nash Eurosoul Cuisine,Restaurant,144-14 243rd Street,Jamaica,NY,11422,(718) 978-6094,Food and Beverage,http://www.panashnyc.com/,QUEENS   ,40.66018,-73.73947,13,31,654,4287998,4135490005,Rosedale                                                                   
295,Met Food on Victory Blvd,Supermarket,1795 Victory Blvd ,Staten Island,NY,10314,(718) 720-5800,Retail,,STATEN IS,40.613042,-74.123317,1,50,151,5000000,5003710053,Westerleigh                                                                
296,Met Food,Supermarket,1177 Hylan Blvd ,Staten Island,NY,10305,(718) 720-5800,Retail,,STATEN IS,40.598515,-74.082246,2,50,9601,5047160,5032080020,Old Town-Dongan Hills-South Beach                                          
297,Food Universe,Supermarket,72 Nagle Avenue ,Manhattan,NY,10040,(212) 904-1300,Retail,,MANHATTAN,40.860229,-73.928485,12,10,285,1064145,1021720056,Washington Heights North                                                   
298,Fine Fare on Ogden,Supermarket,1136 Ogden Ave.,Bronx,NY,10452,(718) 588-5118,Retail,,BRONX    ,40.836352,-73.927434,4,16,199,2003264,2025140040,Highbridge                                                                 
299,C-Town,Supermarket,1434 Jerome Avenue,Bronx,NY,10454,(718) 293-2005,Retail,,BRONX    ,40.840986,-73.917132,4,16,223,2008093,2028430012,West Concourse                                                             
300,C-Town - Broadway,Supermarket,4918 Broadway,Manhattan,NY,10034,(212) 567-4881,Retail,,MANHATTAN,40.867432,-73.921919,12,10,293,1082052,1022350020,Marble Hill-Inwood                                                         
301,C-Town - St. Nicholas,Supermarket,1016 St. Nicholas Avenue,Brooklyn,NY,10032,(212) 795-2877,Retail,,MANHATTAN,40.83505,-73.939809,12,10,24301,1062574,1021090081,Washington Heights South                                                   
302,Cherry Valley Farm,Supermarket,20-16 21st Avenue,Queens,NY,11105,(718) 721-4982,Retail,,QUEENS   ,40.782651,-73.915129,1,22,103,4020252,4008920037,Steinway                                                                   
303,Associated,Supermarket,1888 Fulton Street,Bed Stuy,NY,11233,(718) 778-8665,Retail,,BROOKLYN ,40.678993,-73.924043,3,41,299,3048044,3017040012,Crown Heights North                                                        
304,Fine Fare,Supermarket,459 East 149th Street,Bronx,NY,10451,(718) 993-2400,Retail,,BRONX    ,40.815363,-73.915947,1,17,71,2127050,2022947501,Melrose South-Mott Haven North                                             
305,Estuaries Swimwear,"""Designer swimwear designed and made in NYC""",68 34th Street,Brooklyn,NY,11232,(646) 397-1238,Retail,http://www.EstuariesSwimwear.com,BROOKLYN ,40.657345,-74.006437,7,38,18,3336900,3006870001,Sunset Park West                                                           
306,Dayboat,Fusion restaurant,4116 Queens Boulevard,Sunnyside,NY,11104,(718) 255-6736,Food and Beverage,http://Dayboatnyc.com,QUEENS   ,40.743665,-73.923096,2,26,18102,4002538,4001920030,Hunters Point-Sunnyside-West Maspeth                                       
307,Guacuco Starr,Venezuelan Food,234 Starr Street,Brooklyn,NY,11237,(718) 821-3291,Food and Beverage,http://guacuconyc.com,BROOKLYN ,40.705521,-73.922715,4,34,447,3072768,3031990026,Bushwick North                                                             
308,Tianti Books,"""Specialty Coffeeshop and Bookstore""",535 8th Avenue,New York,NY,10018,(888) 842-6845,Food and Beverage,https://www.facebook.com/TiantiBooksOfficial/,MANHATTAN,40.75395,-73.992193,4,3,111,1013599,1007600043,Hudson Yards-Chelsea-Flatiron-Union Square                                 
309,Ost Cafe,"""Neighborhood coffee shop""",511 Grand Street,New York,NY,10002,,Food and Beverage,http://ostcafenyc.com,MANHATTAN,40.714622,-73.982224,3,1,202,1003748,1002880043,Lower East Side                                                            
310,alpha and omega consulting group inc,"""MWBE Business on Computer Consultants""",21908 119th Avenue,Cambria Heights,NY,11411,(917) 284-2842,Service,http://www.aocgrp.com,QUEENS   ,40.692045,-73.742548,13,27,610,4275423,4127790021,Cambria Heights                                                            
311,Sips + Maker,Coffee Shop,312 New Dorp Lane,Staten Island,NY,10306,(718) 668-9474,Food and Beverage,https://www.facebook.com/sipsandmaker/,STATEN IS,40.571774,-74.112219,2,50,134,5057565,5042190066,New Dorp-Midland Beach                                                     
312,Renegade Hair Salon,Hair salon,71-56 Austin Street,Forest Hills,NY,11375,(718) 268-3338,Service,,QUEENS   ,40.719589,-73.843257,6,29,737,4077922,4032550033,Forest Hills                                                               
313,Greek Family Kitchen,Greek restaurant,212-02 Union Turnpike,Hollis Hills,NY,11427,(718) 470-1700,Food and Beverage,http://www.greekfamilykitchen.com/,QUEENS   ,40.733683,-73.758805,11,23,129102,4164669,4077860045,Oakland Gardens                                                            
314,FOF Flowers & Events,Flower shop,353 East 53rd Street,Whitestone,NY,,,Retail,http://flowersonfirst.com/,,,,,,,,,
315,IBDesign Studio,"""Website design SEO's, hosting, graphic design, website maintenance""",303 East 83 Street,New York,NY,10028,(929) 255-5899,Service,http://www.ibdesign.net,MANHATTAN,40.775767,-73.952774,8,5,138,1049916,1015460001,Yorkville                                                                  
316,"Malik Law Firm, P.C.",Immigration and Criminal Defense Law Firm,85 Broad Street,New York,NY,10004,(919) 451-4007,Service,http://www.maliklawimmigration.com,MANHATTAN,40.704215,-74.011559,1,1,9,1066031,1000290001,Battery Park City-Lower Manhattan                                          
317,UMAMI SHOPPU,"""Modern Japanese: sushi, ramen, yakitori, bento lunches - eat-in or take out""",513 6th Avenue,New York,NY,10011,(212) 229-9991,Food and Beverage,http://umamishoppu.com/,MANHATTAN,40.736922,-73.997171,2,3,71,1010652,1006090045,West Village                                                               
318,Stylish Print Design Gallery,"""Custom Wedding Invitations Studio, letterpress, foil stamping and digital""",43-01 21st Street,Long Island City,NY,11101,(718) 749-3520,Service,http://www.stylishgalleryprint.com,QUEENS   ,40.750564,-73.945718,2,26,19,4005198,4004410016,Hunters Point-Sunnyside-West Maspeth                                       
319,Book Culture on Columbus,Bookstore,450 Columbus Avenue,New York,NY,10024,(212) 595-1962,Retail,http://Bookculture.com,MANHATTAN,40.783624,-73.974275,7,6,165,1032052,1012127501,Upper West Side                                                            
320,Eagle Trading Company,Breakfast & Coffee shop,258 Franklin Street,Greenpoint,NY,11222,(718) 576-3217,Food and Beverage,https://www.facebook.com/Eagle-Trading-Co-323767767738763/,BROOKLYN ,40.734952,-73.958414,1,33,563,3063801,3024950001,Greenpoint                                                                 
321,Bing's Gifts,Cards & Gifts,4515 Greenpoint Avenue,Sunnyside,NY,11104,(718) 784-0287,Retail,https://www.facebook.com/bingsgifts/,QUEENS   ,40.741931,-73.919677,2,26,183,4001953,4001640001,Hunters Point-Sunnyside-West Maspeth                                       
322,City Decks New York,Deck Builder and Garden installation,652 Port Richmond Avenue,Staten Island,NY,10302,(212) 479-8312,Service,http://www.citydecksny.com,STATEN IS,40.627504,-74.142235,1,49,247,5026270,5011320001,Port Richmond                                                              
323,Shilo Byrd Studio,Luxury Apparel Manufacturer,236 Greenpoint Avenue,Brooklyn,NY,11222,(718) 349-2457,Service,http://www.shilobyrd.com,BROOKLYN ,40.730554,-73.950432,1,33,579,3330206,3025780001,Greenpoint                                                                 
324,Baked Cravings,Bakery making Nut free products,1673 Lexington Avenue,New York,NY,10029,(212) 684-5873,Food and Beverage,http://bakedcravings.com,MANHATTAN,40.791472,-73.946833,11,8,166,1051984,1016320151,East Harlem South                                                          
325,Unlimited Martial Arts Academy,Martial Arts,171 Meeker Avenue,Brooklyn,NY,11211,(718) 218-7515,Other,http://unlimitedmartialartsacademy.com/,BROOKLYN ,40.714858,-73.952619,1,33,519,,,North Side-South Side                                                      
326,7th Ave Diner and Donuts,24 Hour diner,324 7th Avenue,Brooklyn,NY,11215,,Food and Beverage,http://7thavenuedonutsanddiner.com/,BROOKLYN ,40.667146,-73.981378,6,39,153,3022173,3010060042,Park Slope-Gowanus                                                         
327,Cote Soleil,French restaurant,50-12 Skillman Avenue,Sunnyside,NY,11377,(347) 612-4333,Food and Beverage,http://www.cotesoleilnyc.com/,QUEENS   ,40.746107,-73.914085,2,26,25302,4000977,4001310017,Hunters Point-Sunnyside-West Maspeth                                       
328,Fennel Realty,"""Commercial & residential sales, leasing, & property management""",151 Wilson Avenue,Brooklyn,NY,11237,(718) 709-8601,Service,http://fennelrealty.com,BROOKLYN ,40.700337,-73.925061,4,34,429,3073158,3032190006,Bushwick North                                                             
329,The Geekery HQ,Game store,42-11 Broadway,Astoria,NY,11103,(718) 606-2853,Retail,https://www.facebook.com/thegeekeryhq/,QUEENS   ,40.758147,-73.917221,1,26,155,4011766,4006920004,Astoria                                                                    
330,Sam's Deli,Deli,275 West 4th Street,New York,NY,10014,(212) 727-9521,Food and Beverage,,MANHATTAN,40.735884,-74.003432,2,3,73,1010903,1006130005,West Village                                                               
623,Family Deli Grocery,Bodega,676 Crotona Avenue,Bronx,NY,10457,(718) 364-2148,Food and Beverage,,,,,,,,,,
332,Craft Invites,"""Elegant Invitations for Wedding, Bridal Showers and more""",265 74th Street,Brooklyn,NY,11209,(646) 881-6698,Service,http://craftinvites.com,BROOKLYN ,40.632414,-74.028559,10,43,66,3147827,3059170049,Bay Ridge                                                                  
333,Fine Care Pharmacy,Pharmacy and small drugstore,981 Fulton Street,Brooklyn,NY,11238,(718) 857-3499,Retail,,BROOKLYN ,40.68285,-73.963826,2,35,201,3056671,3019790051,Clinton Hill                                                               
334,Vanessa's Dumpling House,Dumpling Restaurant,118 Eldridge Street,New York,NY,10002,,Food and Beverage,http://vanessas.com/,MANHATTAN,40.718279,-73.99189,3,1,18,1005433,1004130008,Chinatown                                                                  
335,Bagel Schmagel,Bagel Shop,7510 3rd Avenue,Brooklyn,NY,11209,(718) 833-1774,Food and Beverage,http://www.bagelschmagelny.com/,BROOKLYN ,40.631311,-74.027867,10,43,66,3148681,3059390042,Bay Ridge                                                                  
336,Chopstix Bay Ridge,Chinese Restaurant,8405 5th Avenue,Brooklyn,NY,11209,(718) 238-1300,Food and Beverage,https://www.chopstixbayridge.com/,BROOKLYN ,40.622728,-74.025392,10,43,142,3152852,3060270007,Bay Ridge                                                                  
337,Bagel Boy,Bagel Shop,8002 3rd Avenue,Brooklyn,NY,11209,(718) 748-0366,Food and Beverage,http://www.bagelboyonline.com/,BROOKLYN ,40.627715,-74.029332,10,43,64,3151244,3059870038,Bay Ridge                                                                  
338,One Love Animal Hospital,Animal Hospital,8209 3rd Avenue,Brooklyn,NY,11209,(347) 549-4050,Service,http://onelovevet.com/index.php,BROOKLYN ,40.626232,-74.029918,10,43,62,3152063,3060070007,Bay Ridge                                                                  
339,"Mauve Divine Pastries, LLC","Cupcakes, food",1037 Elder Avenue,Bronx,NY,10472,(347) 679-9107,Food and Beverage,http://www.mauvedivinepastries.com,BRONX    ,40.824728,-73.878285,9,17,5001,2023437,2037130050,Soundview-Bruckner                                                         
340,A Cake Baked In Brooklyn,Bakery,630 Flushing Avenue,Brooklyn,NY,11231,(347) 746-5144,Food and Beverage,http://www.acakebakedinbrooklyn.com,BROOKLYN ,40.699963,-73.948449,3,36,257,3329628,3017200001,Bedford                                                                    
341,Dardo Galletto Studios,Argentine Tango Studio,151 West 46th Street,New York,NY,10036,(212) 575-0222,Other,http://www.dardogallettostudios.com/,MANHATTAN,40.757998,-73.983667,5,4,125,1022663,1009990009,Midtown-Midtown South                                                      
342,Bluming Studio,Pilates and Gyrotonic,227 Kent Avenue,Brooklyn,NY,11249,(917) 868-6916,"Other, ",http://blumingstudio.com,BROOKLYN ,40.716814,-73.965463,1,33,555,3062562,3023780006,North Side-South Side                                                      
343,Dromedary Bar,"""Neighborhood cocktail bar""",266 Irving Avenue,Brooklyn,NY,11237,(917) 589-4251,Food and Beverage,http://Dromedarybar,BROOKLYN ,40.699752,-73.915685,4,37,433,3075718,3033090028,Bushwick North                                                             
344,Bagels & Schmear,Bagel Shop,116 East 28th Street,New York,NY,10016,(212) 725-7873,Food and Beverage,http://www.bagelsandschmear.com/,MANHATTAN,40.742951,-73.983201,5,2,68,1018202,1008830083,Gramercy                                                                   
345,Tb Moving,"""Well-renowned Manhattan based long distance movers""",121 12th Street,Brooklyn,NY,11211,(917) 941-1030,Service,https://tbmoving.com/,BROOKLYN ,40.670295,-73.993839,6,39,117,3022775,3010200059,Park Slope-Gowanus                                                         
346,Beyond Media Global,Global Boutique Media Agency,54W 40th Street,New York,NY,10018,(917) 722-2391,Service,http://www.bmgww.com/,MANHATTAN,40.752909,-73.983534,5,4,84,1016057,1008410080,Midtown-Midtown South                                                      
347,Spotless by J Ferrari,Cleaning service,8 Spruce Street,New York,NY,10038,(212) 321-0259,Service,http://www.spotlessbyjferrari.com,MANHATTAN,40.711407,-74.005573,1,1,1501,1087485,1001007502,Battery Park City-Lower Manhattan                                          
348,Flora Nail & Spa,Nail Salons,1 Christie Place,Scarsdale,NY,10583,(914) 713-4455,Service,https://www.floranailandspa.com,,,,,,,,,
349,Dani's House of Pizza,Pizza place,81-28 Lefferts Blvd,Kew Gardens,NY,11415,(718) 846-2849,Food and Beverage,http://www.danishouseofpizza.com,QUEENS   ,40.708875,-73.830434,9,29,775,4079724,4033370092,Kew Gardens                                                                
350,HypnoTronic,Comic-book and memorabilia,156 Stuyvesant Place,Staten Island,NY,10301,(718) 720-0001,Retail,http://hypnotroniccomics.com,STATEN IS,40.642622,-74.076672,1,49,3,5000086,5000080086,West New Brighton-New Brighton-St. George                                  
351,VOGUE hair Design,Hair salon,1031 Morris Park Avenue,Bronx,NY,10462,(718) 975-6944,Service,,BRONX    ,40.84861,-73.855152,11,13,252,2045493,2041280040,Van Nest-Morris Park-Westchester Square                                    
352,Ok Hardware,Hardware store,438 Broome Street,New York,NY,10012,,Retail,,MANHATTAN,40.72168,-73.999582,2,1,45,1007241,1004830038,SoHo-TriBeCa-Civic Center-Little Italy                                     
353,La Cabana Antojitos Dominicanos,"""Authentic Dominican Food""",39-17 103rd Street,Corona,NY,11368,(718) 898-7593,Food and Beverage,http://www.lacabanaantojitosdominicanos.com/,QUEENS   ,40.750463,-73.862988,3,21,405,4044398,4017700107,North Corona                                                               
354,La Isla Cuchifritos Restaurant,"""Authentic Puerto rican and Dominican food""",6 Graham Avenue,Brooklyn,NY,11206,,Food and Beverage,http://None,BROOKLYN ,40.701022,-73.942202,1,34,491,3326061,3031270001,East Williamsburg                                                          
355,Sprinkle Splash Sweet Shoppe Inc.,"""One of a kind custom cakes and traditional Pierto Rican Desserts""",1590 Park Avenue,New York,NY,10029,(646) 548-6880,Food and Beverage,http://www.sprinklesplash.com/,MANHATTAN,40.798495,-73.943819,11,8,182,1088600,1200149999,East Harlem North                                                          
356,Sweet Butttons Desserts,Bakery,84 Rivington Street,New York,NY,10002,(718) 810-1085,Food and Beverage,http://www.sweetbuttonsdesserts.com,MANHATTAN,40.720335,-73.989181,3,1,3001,1005536,1004160069,Chinatown                                                                  
357,Bee&Bee Department Store,Department store,2980 Third Avenue,New York,NY,10455,(718) 585-9781,Retail,,BRONX    ,40.818664,-73.914306,1,17,71,2001181,2023630014,Melrose South-Mott Haven North                                             
358,Sakura Ya,Japanese Mart,73-05 Austin Street,Forest Hills,NY,11375,(718) 268-7220,Retail,http://www.sakura-yajapanesemart.com/,QUEENS   ,40.718243,-73.840313,6,29,76901,4078797,4032920001,Forest Hills                                                               
359,Wine Therapy,Wine Shop,171 Elizabeth Street,New York,NY,10012,(212) 625-2999,Retail,http://winetherapynyc.com,MANHATTAN,40.721049,-73.994816,2,1,41,1077740,1004790021,SoHo-TriBeCa-Civic Center-Little Italy                                     
360,HVC INC,Variety Store,124-20 Jamaica Ave,Richmond Hill,NY,11418,(718) 850-0650,Retail,https://www.facebook.com/hvcincrichmondhill/,QUEENS   ,40.700853,-73.826163,9,29,14201,4539431,4093337501,Richmond Hill                                                              
361,Tailwind Endurance,Endurance Sports Training,143 West 72nd Street,New York,NY,10023,(212) 706-2166,Other,http://www.tailwindendurance.com,MANHATTAN,40.777957,-73.980062,7,6,157,1029926,1011440015,Lincoln Square                                                             
362,J&M Hardware & Locksmiths,Retail hardware store,19 East 21st Street,New York,NY,10010,(212) 673-6050,Retail,https://www.facebook.com/JmHardwareLtd,MANHATTAN,40.739702,-73.989171,5,2,56,1016245,1008500018,Hudson Yards-Chelsea-Flatiron-Union Square                                 
363,East Village Dance Project at Ave C Studio!,"""Storefront dance studio offering free and cheap dance to kids and adults""",55 Avenue C. Storefront,New York,NY,10009,(212) 982-5751,Service,http://www.eastvillagedanceproject.com,MANHATTAN,40.722431,-73.980075,3,2,2601,1004645,1003870037,Lower East Side                                                            
364,The Tea Room BK,"""Elegant café in East New York, brings great chance for people of color""",452 Pine Street,New York,NY,11208,(718) 484-0758,Food and Beverage,https://www.facebook.com/TheTeaRoomBK/,BROOKLYN ,40.674612,-73.870776,5,42,1196,,,East New York                                                              
365,Integral Yoga Natural Foods,Natural Food Store,229 West 13th Street,New York,NY,10011,(212) 243-2642,Food and Beverage,https://www.facebook.com/iynfa/,MANHATTAN,40.73836,-74.001324,2,3,77,1011121,1006180053,West Village                                                               
366,Republic Bar & Pizza,Pizza Bar Lounge,33-29 Astoria Blvd N.,Astoria,NY,11103,,Food and Beverage,http://RepublicAstoria.com,QUEENS   ,40.770234,-73.91561,1,22,125,4017308,4008360038,Steinway                                                                   
